{
   "type": "FeatureCollection",
   "features": [
  {
    "type": "Feature",
    "geometry": {
       "type": "Point",
       "coordinates":  [ -2.65502800,51.4921060 ]
    },
    "properties": {
    "maxDate":640,
    "minDate":-30,
    "Title":"‘Abone’"
    }
  },
  {
    "type": "Feature",
    "geometry": {
       "type": "Point",
       "coordinates":  [ 10.32809850,42.8168005 ]
    },
    "properties": {
    "maxDate":2100,
    "minDate":-750,
    "Title":"‘Argoos Limen’"
    }
  },
  {
    "type": "Feature",
    "geometry": {
       "type": "Point",
       "coordinates":  [ 32.51065200,25.3155590 ]
    },
    "properties": {
    "maxDate":640,
    "minDate":-750,
    "Title":"‘Asfynis’"
    }
  },
  {
    "type": "Feature",
    "geometry": {
       "type": "Point",
       "coordinates":  [ -3.44735500,51.4617090 ]
    },
    "properties": {
    "maxDate":640,
    "minDate":-30,
    "Title":"‘Bomio’"
    }
  },
  {
    "type": "Feature",
    "geometry": {
       "type": "Point",
       "coordinates":  [ 0.62359800,52.3037000 ]
    },
    "properties": {
    "maxDate":640,
    "minDate":-30,
    "Title":"‘Camborico’?"
    }
  },
  {
    "type": "Feature",
    "geometry": {
       "type": "Point",
       "coordinates":  [ 13.73111600,45.5481310 ]
    },
    "properties": {
    "maxDate":640,
    "minDate":-30,
    "Title":"‘Capris’ / Iustinopolis"
    }
  },
  {
    "type": "Feature",
    "geometry": {
       "type": "Point",
       "coordinates":  [ 30.73047000,40.4212950 ]
    },
    "properties": {
    "maxDate":300,
    "minDate":-30,
    "Title":"‘Cenon Gallicanon’?"
    }
  },
  {
    "type": "Feature",
    "geometry": {
       "type": "Point",
       "coordinates":  [ -3.45172805,51.9565230 ]
    },
    "properties": {
    "maxDate":640,
    "minDate":-30,
    "Title":"‘Cicutio’"
    }
  },
  {
    "type": "Feature",
    "geometry": {
       "type": "Point",
       "coordinates":  [ -1.24784200,49.3029400 ]
    },
    "properties": {
    "maxDate":640,
    "minDate":-30,
    "Title":"‘Crouciaconnum’"
    }
  },
  {
    "type": "Feature",
    "geometry": {
       "type": "Point",
       "coordinates":  [ 37.07564100,34.2704745 ]
    },
    "properties": {
    "maxDate":640,
    "minDate":300,
    "Title":"‘Danova’"
    }
  },
  {
    "type": "Feature",
    "geometry": {
       "type": "Point",
       "coordinates":  [ 14.32840200,47.7219230 ]
    },
    "properties": {
    "maxDate":640,
    "minDate":-30,
    "Title":"‘Gabromago’"
    }
  },
  {
    "type": "Feature",
    "geometry": {
       "type": "Point",
       "coordinates":  [ 14.00149250,42.0042020 ]
    },
    "properties": {
    "maxDate":300,
    "minDate":-330,
    "Title":"‘Iovis Lareni’"
    }
  },
  {
    "type": "Feature",
    "geometry": {
       "type": "Point",
       "coordinates":  [ 42.86666600,39.2333330 ]
    },
    "properties": {
    "maxDate":640,
    "minDate":300,
    "Title":"‘Isumbo’ / Patansana / Zombis"
    }
  },
  {
    "type": "Feature",
    "geometry": {
       "type": "Point",
       "coordinates":  [ 18.29279900,45.1904205 ]
    },
    "properties": {
    "maxDate":640,
    "minDate":-30,
    "Title":"‘Leucono’?"
    }
  },
  {
    "type": "Feature",
    "geometry": {
       "type": "Point",
       "coordinates":  [ 9.10218000,40.7191400 ]
    },
    "properties": {
    "maxDate":640,
    "minDate":-30,
    "Title":"‘Luguidunec’"
    }
  },
  {
    "type": "Feature",
    "geometry": {
       "type": "Point",
       "coordinates":  [ 29.85363200,37.1215770 ]
    },
    "properties": {
    "maxDate":-30,
    "minDate":-330,
    "Title":"‘Madamprus’"
    }
  },
  {
    "type": "Feature",
    "geometry": {
       "type": "Point",
       "coordinates":  [ 17.07134400,46.9427730 ]
    },
    "properties": {
    "maxDate":640,
    "minDate":-30,
    "Title":"‘Mestrianis’"
    }
  },
  {
    "type": "Feature",
    "geometry": {
       "type": "Point",
       "coordinates":  [ 27.66549400,41.0387980 ]
    },
    "properties": {
    "maxDate":640,
    "minDate":300,
    "Title":"‘Mocasura’?"
    }
  },
  {
    "type": "Feature",
    "geometry": {
       "type": "Point",
       "coordinates":  [ 45.36694100,39.2117440 ]
    },
    "properties": {
    "maxDate":300,
    "minDate":-30,
    "Title":"‘Naxouana’"
    }
  },
  {
    "type": "Feature",
    "geometry": {
       "type": "Point",
       "coordinates":  [ 37.86186300,37.6933890 ]
    },
    "properties": {
    "maxDate":2100,
    "minDate":300,
    "Title":"‘Octacuscum’"
    }
  },
  {
    "type": "Feature",
    "geometry": {
       "type": "Point",
       "coordinates":  [ 23.03222900,45.8643780 ]
    },
    "properties": {
    "maxDate":300,
    "minDate":-30,
    "Title":"‘Petris’"
    }
  },
  {
    "type": "Feature",
    "geometry": {
       "type": "Point",
       "coordinates":  [ 34.29913900,44.5688610 ]
    },
    "properties": {
    "maxDate":640,
    "minDate":300,
    "Title":"‘Phrourion’"
    }
  },
  {
    "type": "Feature",
    "geometry": {
       "type": "Point",
       "coordinates":  [ 3.56186600,50.4218320 ]
    },
    "properties": {
    "maxDate":640,
    "minDate":-30,
    "Title":"‘Pontes Caldis’"
    }
  },
  {
    "type": "Feature",
    "geometry": {
       "type": "Point",
       "coordinates":  [ -0.00620000,45.7817000 ]
    },
    "properties": {
    "maxDate":2100,
    "minDate":-30,
    "Title":"‘Sermanicomago’?"
    }
  },
  {
    "type": "Feature",
    "geometry": {
       "type": "Point",
       "coordinates":  [ 13.50523700,45.5005130 ]
    },
    "properties": {
    "maxDate":640,
    "minDate":-30,
    "Title":"‘Silvo’"
    }
  },
  {
    "type": "Feature",
    "geometry": {
       "type": "Point",
       "coordinates":  [ 11.56479600,46.6396100 ]
    },
    "properties": {
    "maxDate":640,
    "minDate":-30,
    "Title":"‘Sublavione’"
    }
  },
  {
    "type": "Feature",
    "geometry": {
       "type": "Point",
       "coordinates":  [ -1.21466760,52.4081039 ]
    },
    "properties": {
    "maxDate":640,
    "minDate":-30,
    "Title":"‘Tripontio’"
    }
  },
  {
    "type": "Feature",
    "geometry": {
       "type": "Point",
       "coordinates":  [ -1.05590000,52.8215830 ]
    },
    "properties": {
    "maxDate":640,
    "minDate":-30,
    "Title":"‘Vernemeto’"
    }
  },
  {
    "type": "Feature",
    "geometry": {
       "type": "Point",
       "coordinates":  [ 28.19904500,39.2056980 ]
    },
    "properties": {
    "maxDate":-30,
    "minDate":-330,
    "Title":"(...)aleia?"
    }
  },
  {
    "type": "Feature",
    "geometry": {
       "type": "Point",
       "coordinates":  [ 7.80033600,35.2033630 ]
    },
    "properties": {
    "maxDate":640,
    "minDate":-30,
    "Title":"(...)lense"
    }
  },
  {
    "type": "Feature",
    "geometry": {
       "type": "Point",
       "coordinates":  [ 8.14132300,36.1854900 ]
    },
    "properties": {
    "maxDate":300,
    "minDate":-30,
    "Title":"(...)rdensium"
    }
  },
  {
    "type": "Feature",
    "geometry": {
       "type": "Point",
       "coordinates":  [ 9.55806700,36.2209710 ]
    },
    "properties": {
    "maxDate":640,
    "minDate":-30,
    "Title":"(...)sinsensium"
    }
  },
  {
    "type": "Feature",
    "geometry": {
       "type": "Point",
       "coordinates":  [ 32.72774300,34.7399550 ]
    },
    "properties": {
    "maxDate":640,
    "minDate":-30,
    "Title":"(A)Nogyra"
    }
  },
  {
    "type": "Feature",
    "geometry": {
       "type": "Point",
       "coordinates":  [ 10.25669600,34.4114130 ]
    },
    "properties": {
    "maxDate":640,
    "minDate":-30,
    "Title":"(Ad) Oleastrum?"
    }
  },
  {
    "type": "Feature",
    "geometry": {
       "type": "Point",
       "coordinates":  [ -7.44171700,37.2184500 ]
    },
    "properties": {
    "maxDate":640,
    "minDate":-30,
    "Title":"(B)Aesuris / Esuris"
    }
  },
  {
    "type": "Feature",
    "geometry": {
       "type": "Point",
       "coordinates":  [ 18.05909700,40.0623620 ]
    },
    "properties": {
    "maxDate":640,
    "minDate":-750,
    "Title":"(B)Aletium"
    }
  },
  {
    "type": "Feature",
    "geometry": {
       "type": "Point",
       "coordinates":  [ 31.61617200,39.5114210 ]
    },
    "properties": {
    "maxDate":640,
    "minDate":-30,
    "Title":"(Col. Iulia Aug. Felix) Germa"
    }
  },
  {
    "type": "Feature",
    "geometry": {
       "type": "Point",
       "coordinates":  [ 22.49469730,41.2748197 ]
    },
    "properties": {
    "maxDate":640,
    "minDate":-550,
    "Title":"(E)Idomene"
    }
  },
  {
    "type": "Feature",
    "geometry": {
       "type": "Point",
       "coordinates":  [ 23.25000000,36.7500000 ]
    },
    "properties": {
    "maxDate":2100,
    "minDate":-550,
    "Title":"(Epi)Delion"
    }
  },
  {
    "type": "Feature",
    "geometry": {
       "type": "Point",
       "coordinates":  [ 22.41559200,39.9297040 ]
    },
    "properties": {
    "maxDate":-30,
    "minDate":-330,
    "Title":"(Eu)Dieron?"
    }
  },
  {
    "type": "Feature",
    "geometry": {
       "type": "Point",
       "coordinates":  [ -8.39596800,43.3714850 ]
    },
    "properties": {
    "maxDate":640,
    "minDate":-330,
    "Title":"(Flavium) Brigantium / Portus Magnus?"
    }
  },
  {
    "type": "Feature",
    "geometry": {
       "type": "Point",
       "coordinates":  [ 22.16574100,37.3906140 ]
    },
    "properties": {
    "maxDate":-30,
    "minDate":-750,
    "Title":"(H)Aimoniai"
    }
  },
  {
    "type": "Feature",
    "geometry": {
       "type": "Point",
       "coordinates":  [ 35.87383200,36.8168410 ]
    },
    "properties": {
    "maxDate":640,
    "minDate":-30,
    "Title":"(H)Alai"
    }
  },
  {
    "type": "Feature",
    "geometry": {
       "type": "Point",
       "coordinates":  [ -6.17257200,36.7880020 ]
    },
    "properties": {
    "maxDate":640,
    "minDate":-750,
    "Title":"(H)Asta / Col. Hasta Regia / Ligystine?"
    }
  },
  {
    "type": "Feature",
    "geometry": {
       "type": "Point",
       "coordinates":  [ 12.05619500,45.0577000 ]
    },
    "properties": {
    "maxDate":640,
    "minDate":-750,
    "Title":"(H)Atria"
    }
  },
  {
    "type": "Feature",
    "geometry": {
       "type": "Point",
       "coordinates":  [ 23.13601200,38.9117720 ]
    },
    "properties": {
    "maxDate":300,
    "minDate":-550,
    "Title":"(H)Ellopia"
    }
  },
  {
    "type": "Feature",
    "geometry": {
       "type": "Point",
       "coordinates":  [ 36.71931900,34.7376565 ]
    },
    "properties": {
    "maxDate":2000,
    "minDate":-1200,
    "Title":"(H)Emesa"
    }
  },
  {
    "type": "Feature",
    "geometry": {
       "type": "Point",
       "coordinates":  [ 14.28074730,37.5667573 ]
    },
    "properties": {
    "maxDate":2100,
    "minDate":-550,
    "Title":"(H)Enna"
    }
  },
  {
    "type": "Feature",
    "geometry": {
       "type": "Point",
       "coordinates":  [ 81.85767100,26.9538960 ]
    },
    "properties": {
    "maxDate":640,
    "minDate":-30,
    "Title":"(H)Eorta / Sageda"
    }
  },
  {
    "type": "Feature",
    "geometry": {
       "type": "Point",
       "coordinates":  [ 36.22045400,38.6688690 ]
    },
    "properties": {
    "maxDate":300,
    "minDate":-330,
    "Title":"(H)Erp(h)a"
    }
  },
  {
    "type": "Feature",
    "geometry": {
       "type": "Point",
       "coordinates":  [ 27.51586300,38.6665500 ]
    },
    "properties": {
    "maxDate":300,
    "minDate":-30,
    "Title":"(H)Ormoita"
    }
  },
  {
    "type": "Feature",
    "geometry": {
       "type": "Point",
       "coordinates":  [ 27.69068300,39.3687200 ]
    },
    "properties": {
    "maxDate":640,
    "minDate":-30,
    "Title":"(Hiera) Germe"
    }
  },
  {
    "type": "Feature",
    "geometry": {
       "type": "Point",
       "coordinates":  [ 21.62511980,38.3493169 ]
    },
    "properties": {
    "maxDate":2100,
    "minDate":-750,
    "Title":"(Hypo)Chalkis"
    }
  },
  {
    "type": "Feature",
    "geometry": {
       "type": "Point",
       "coordinates":  [ -0.76921250,38.3459902 ]
    },
    "properties": {
    "maxDate":2099,
    "minDate":-30,
    "Title":"(I)Aspis"
    }
  },
  {
    "type": "Feature",
    "geometry": {
       "type": "Point",
       "coordinates":  [ 52.90944400,29.9808330 ]
    },
    "properties": {
    "maxDate":640,
    "minDate":-30,
    "Title":"(I)Stakhr"
    }
  },
  {
    "type": "Feature",
    "geometry": {
       "type": "Point",
       "coordinates":  [ -6.36363800,37.4481100 ]
    },
    "properties": {
    "maxDate":640,
    "minDate":-550,
    "Title":"(I)Tucci"
    }
  },
  {
    "type": "Feature",
    "geometry": {
       "type": "Point",
       "coordinates":  [ -7.66296050,37.6384385 ]
    },
    "properties": {
    "maxDate":640,
    "minDate":-330,
    "Title":"(Iulia) Myrtilis"
    }
  },
  {
    "type": "Feature",
    "geometry": {
       "type": "Point",
       "coordinates":  [ 44.31541600,40.2622890 ]
    },
    "properties": {
    "maxDate":640,
    "minDate":-330,
    "Title":"(M)Otene"
    }
  },
  {
    "type": "Feature",
    "geometry": {
       "type": "Point",
       "coordinates":  [ 27.67103900,38.9890780 ]
    },
    "properties": {
    "maxDate":300,
    "minDate":-30,
    "Title":"(N)Akokome"
    }
  },
  {
    "type": "Feature",
    "geometry": {
       "type": "Point",
       "coordinates":  [ 32.40659300,34.7572120 ]
    },
    "properties": {
    "maxDate":640,
    "minDate":-550,
    "Title":"(Nea) Paphos"
    }
  },
  {
    "type": "Feature",
    "geometry": {
       "type": "Point",
       "coordinates":  [ 30.60618400,24.6840270 ]
    },
    "properties": {
    "maxDate":2100,
    "minDate":300,
    "Title":"(P)Mounesis"
    }
  },
  {
    "type": "Feature",
    "geometry": {
       "type": "Point",
       "coordinates":  [ 31.44408500,26.9049080 ]
    },
    "properties": {
    "maxDate":640,
    "minDate":300,
    "Title":"(P)Teme"
    }
  },
  {
    "type": "Feature",
    "geometry": {
       "type": "Point",
       "coordinates":  [ 22.70492600,38.5542650 ]
    },
    "properties": {
    "maxDate":-30,
    "minDate":-550,
    "Title":"(Pa)Tronis?"
    }
  },
  {
    "type": "Feature",
    "geometry": {
       "type": "Point",
       "coordinates":  [ 32.57908600,34.7053255 ]
    },
    "properties": {
    "maxDate":640,
    "minDate":-750,
    "Title":"(Palai)Paphos"
    }
  },
  {
    "type": "Feature",
    "geometry": {
       "type": "Point",
       "coordinates":  [ 22.48239000,36.4371750 ]
    },
    "properties": {
    "maxDate":null,
    "minDate":null,
    "Title":"(Ps)Amathous"
    }
  },
  {
    "type": "Feature",
    "geometry": {
       "type": "Point",
       "coordinates":  [ -4.18655300,38.0742650 ]
    },
    "properties": {
    "maxDate":640,
    "minDate":-330,
    "Title":"(S)Ucia"
    }
  },
  {
    "type": "Feature",
    "geometry": {
       "type": "Point",
       "coordinates":  [ 32.00269300,26.2341310 ]
    },
    "properties": {
    "maxDate":640,
    "minDate":300,
    "Title":"(T)Polybiane"
    }
  },
  {
    "type": "Feature",
    "geometry": {
       "type": "Point",
       "coordinates":  [ 36.59497800,34.4435660 ]
    },
    "properties": {
    "maxDate":300,
    "minDate":-330,
    "Title":"(Tri)Paradeisos"
    }
  },
  {
    "type": "Feature",
    "geometry": {
       "type": "Point",
       "coordinates":  [ 24.84413260,35.3080415 ]
    },
    "properties": {
    "maxDate":1923,
    "minDate":-750,
    "Title":"(W)Axos"
    }
  },
  {
    "type": "Feature",
    "geometry": {
       "type": "Point",
       "coordinates":  [ 59.67009100,37.5190880 ]
    },
    "properties": {
    "maxDate":640,
    "minDate":-330,
    "Title":"[(A)Bivard] / Apauarktike"
    }
  },
  {
    "type": "Feature",
    "geometry": {
       "type": "Point",
       "coordinates":  [ 44.44985100,31.8833240 ]
    },
    "properties": {
    "maxDate":640,
    "minDate":300,
    "Title":"[(al-)Hir(t)a] / Ertha?"
    }
  },
  {
    "type": "Feature",
    "geometry": {
       "type": "Point",
       "coordinates":  [ 12.65728500,45.6377475 ]
    },
    "properties": {
    "maxDate":640,
    "minDate":300,
    "Title":"[(H)Eraclia]"
    }
  },
  {
    "type": "Feature",
    "geometry": {
       "type": "Point",
       "coordinates":  [ 34.60357450,38.1015395 ]
    },
    "properties": {
    "maxDate":640,
    "minDate":300,
    "Title":"[Balbissa]"
    }
  },
  {
    "type": "Feature",
    "geometry": {
       "type": "Point",
       "coordinates":  [ 0.66408400,46.4443150 ]
    },
    "properties": {
    "maxDate":2100,
    "minDate":-30,
    "Title":"[Exidualum]"
    }
  },
  {
    "type": "Feature",
    "geometry": {
       "type": "Point",
       "coordinates":  [ 30.53540818,25.4145724 ]
    },
    "properties": {
    "maxDate":640,
    "minDate":-30,
    "Title":"[Parammon]?"
    }
  },
  {
    "type": "Feature",
    "geometry": {
       "type": "Point",
       "coordinates":  [ 44.88115800,33.2389670 ]
    },
    "properties": {
    "maxDate":640,
    "minDate":-30,
    "Title":"[Aberta]"
    }
  },
  {
    "type": "Feature",
    "geometry": {
       "type": "Point",
       "coordinates":  [ 30.64290700,37.9514120 ]
    },
    "properties": {
    "maxDate":640,
    "minDate":300,
    "Title":"[Agrai]"
    }
  },
  {
    "type": "Feature",
    "geometry": {
       "type": "Point",
       "coordinates":  [ 54.21181000,38.0143460 ]
    },
    "properties": {
    "maxDate":640,
    "minDate":300,
    "Title":"[Akhur] / [Dihistan]?"
    }
  },
  {
    "type": "Feature",
    "geometry": {
       "type": "Point",
       "coordinates":  [ 47.40784900,31.4933140 ]
    },
    "properties": {
    "maxDate":640,
    "minDate":300,
    "Title":"[al-Madhar]"
    }
  },
  {
    "type": "Feature",
    "geometry": {
       "type": "Point",
       "coordinates":  [ 43.78627000,34.4055930 ]
    },
    "properties": {
    "maxDate":640,
    "minDate":300,
    "Title":"[al-Mahuza]"
    }
  },
  {
    "type": "Feature",
    "geometry": {
       "type": "Point",
       "coordinates":  [ 5.05153050,44.4309180 ]
    },
    "properties": {
    "maxDate":2100,
    "minDate":-550,
    "Title":"[Altonum]"
    }
  },
  {
    "type": "Feature",
    "geometry": {
       "type": "Point",
       "coordinates":  [ 19.10987900,42.0809580 ]
    },
    "properties": {
    "maxDate":640,
    "minDate":-30,
    "Title":"[Antibaris]"
    }
  },
  {
    "type": "Feature",
    "geometry": {
       "type": "Point",
       "coordinates":  [ 38.26877500,38.7755600 ]
    },
    "properties": {
    "maxDate":640,
    "minDate":300,
    "Title":"[Argaous]"
    }
  },
  {
    "type": "Feature",
    "geometry": {
       "type": "Point",
       "coordinates":  [ 56.37333300,36.9547220 ]
    },
    "properties": {
    "maxDate":null,
    "minDate":null,
    "Title":"[Arghiyan]"
    }
  },
  {
    "type": "Feature",
    "geometry": {
       "type": "Point",
       "coordinates":  [ 44.58348700,33.1002720 ]
    },
    "properties": {
    "maxDate":640,
    "minDate":-30,
    "Title":"[Aspanbor]"
    }
  },
  {
    "type": "Feature",
    "geometry": {
       "type": "Point",
       "coordinates":  [ 32.41337150,38.2532735 ]
    },
    "properties": {
    "maxDate":640,
    "minDate":300,
    "Title":"[Bardaetta]"
    }
  },
  {
    "type": "Feature",
    "geometry": {
       "type": "Point",
       "coordinates":  [ 47.82063500,30.5032170 ]
    },
    "properties": {
    "maxDate":2100,
    "minDate":-1200,
    "Title":"[Basra]"
    }
  },
  {
    "type": "Feature",
    "geometry": {
       "type": "Point",
       "coordinates":  [ 36.70112850,39.8367430 ]
    },
    "properties": {
    "maxDate":640,
    "minDate":300,
    "Title":"[Bathys Rhyax] / [Krya Pege]?"
    }
  },
  {
    "type": "Feature",
    "geometry": {
       "type": "Point",
       "coordinates":  [ 55.00970500,36.4606080 ]
    },
    "properties": {
    "maxDate":640,
    "minDate":-30,
    "Title":"[Bistam]"
    }
  },
  {
    "type": "Feature",
    "geometry": {
       "type": "Point",
       "coordinates":  [ 8.05825500,45.5628120 ]
    },
    "properties": {
    "maxDate":640,
    "minDate":300,
    "Title":"[Bugella]"
    }
  },
  {
    "type": "Feature",
    "geometry": {
       "type": "Point",
       "coordinates":  [ 50.83221350,28.9281680 ]
    },
    "properties": {
    "maxDate":2000,
    "minDate":-3200,
    "Title":"[Bushahr] / Antiocheia Persidos?"
    }
  },
  {
    "type": "Feature",
    "geometry": {
       "type": "Point",
       "coordinates":  [ 44.50800000,33.8728090 ]
    },
    "properties": {
    "maxDate":640,
    "minDate":-30,
    "Title":"[Buzurg Shapur] / [Ukbara]"
    }
  },
  {
    "type": "Feature",
    "geometry": {
       "type": "Point",
       "coordinates":  [ 12.17416000,44.6977670 ]
    },
    "properties": {
    "maxDate":640,
    "minDate":300,
    "Title":"[Castrum Cumiacli]"
    }
  },
  {
    "type": "Feature",
    "geometry": {
       "type": "Point",
       "coordinates":  [ 11.06333100,45.9185260 ]
    },
    "properties": {
    "maxDate":640,
    "minDate":300,
    "Title":"[Castrum Volaenes]"
    }
  },
  {
    "type": "Feature",
    "geometry": {
       "type": "Point",
       "coordinates":  [ 27.10559700,41.2141110 ]
    },
    "properties": {
    "maxDate":null,
    "minDate":null,
    "Title":"[Charioupolis]"
    }
  },
  {
    "type": "Feature",
    "geometry": {
       "type": "Point",
       "coordinates":  [ 54.34999800,36.1666660 ]
    },
    "properties": {
    "maxDate":2000,
    "minDate":-1200,
    "Title":"[Damghan] / [(Medinat) Qumis]"
    }
  },
  {
    "type": "Feature",
    "geometry": {
       "type": "Point",
       "coordinates":  [ 40.74316646,35.6455779 ]
    },
    "properties": {
    "maxDate":300,
    "minDate":-1000,
    "Title":"[Dur-Katlimmu] / Magdalu"
    }
  },
  {
    "type": "Feature",
    "geometry": {
       "type": "Point",
       "coordinates":  [ 12.63897290,45.5427041 ]
    },
    "properties": {
    "maxDate":640,
    "minDate":-30,
    "Title":"[Equilum]"
    }
  },
  {
    "type": "Feature",
    "geometry": {
       "type": "Point",
       "coordinates":  [ 11.62047700,44.8379520 ]
    },
    "properties": {
    "maxDate":640,
    "minDate":300,
    "Title":"[Feraria]"
    }
  },
  {
    "type": "Feature",
    "geometry": {
       "type": "Point",
       "coordinates":  [ 46.17665600,31.5680045 ]
    },
    "properties": {
    "maxDate":2100,
    "minDate":-6500,
    "Title":"[Girsu] / Tello(h)"
    }
  },
  {
    "type": "Feature",
    "geometry": {
       "type": "Point",
       "coordinates":  [ 34.22147000,37.4800100 ]
    },
    "properties": {
    "maxDate":640,
    "minDate":300,
    "Title":"[Herakleia]"
    }
  },
  {
    "type": "Feature",
    "geometry": {
       "type": "Point",
       "coordinates":  [ 45.85589000,34.4651140 ]
    },
    "properties": {
    "maxDate":640,
    "minDate":-750,
    "Title":"[Hulwan] / Valashfarr / Beth Lashpar / Chala / Albania"
    }
  },
  {
    "type": "Feature",
    "geometry": {
       "type": "Point",
       "coordinates":  [ 45.11833300,34.1863880 ]
    },
    "properties": {
    "maxDate":640,
    "minDate":300,
    "Title":"[Jalula]"
    }
  },
  {
    "type": "Feature",
    "geometry": {
       "type": "Point",
       "coordinates":  [ 55.14543750,37.2325580 ]
    },
    "properties": {
    "maxDate":640,
    "minDate":-30,
    "Title":"[Jurjan] / G(o)urgan?"
    }
  },
  {
    "type": "Feature",
    "geometry": {
       "type": "Point",
       "coordinates":  [ 47.95571100,34.5028920 ]
    },
    "properties": {
    "maxDate":640,
    "minDate":-330,
    "Title":"[Kangavar] / Concobar"
    }
  },
  {
    "type": "Feature",
    "geometry": {
       "type": "Point",
       "coordinates":  [ 43.79309700,34.3583430 ]
    },
    "properties": {
    "maxDate":640,
    "minDate":-30,
    "Title":"[Karkh Firuz] / ‘Charcha’"
    }
  },
  {
    "type": "Feature",
    "geometry": {
       "type": "Point",
       "coordinates":  [ 52.49732600,35.2868840 ]
    },
    "properties": {
    "maxDate":640,
    "minDate":-330,
    "Title":"[Khuvar] / Choara / Apameia (Rhagiane)?"
    }
  },
  {
    "type": "Feature",
    "geometry": {
       "type": "Point",
       "coordinates":  [ 35.78682700,38.1539500 ]
    },
    "properties": {
    "maxDate":640,
    "minDate":300,
    "Title":"[Kiskisos]"
    }
  },
  {
    "type": "Feature",
    "geometry": {
       "type": "Point",
       "coordinates":  [ 35.26616050,38.4633760 ]
    },
    "properties": {
    "maxDate":640,
    "minDate":300,
    "Title":"[Korama]"
    }
  },
  {
    "type": "Feature",
    "geometry": {
       "type": "Point",
       "coordinates":  [ 34.31721550,38.0677910 ]
    },
    "properties": {
    "maxDate":640,
    "minDate":300,
    "Title":"[Koron]"
    }
  },
  {
    "type": "Feature",
    "geometry": {
       "type": "Point",
       "coordinates":  [ 6.37999400,47.8175520 ]
    },
    "properties": {
    "maxDate":2100,
    "minDate":-30,
    "Title":"[Luxovium]"
    }
  },
  {
    "type": "Feature",
    "geometry": {
       "type": "Point",
       "coordinates":  [ 37.08654600,38.1898205 ]
    },
    "properties": {
    "maxDate":640,
    "minDate":300,
    "Title":"[Lykandos] / [Lapara]"
    }
  },
  {
    "type": "Feature",
    "geometry": {
       "type": "Point",
       "coordinates":  [ 34.39368000,38.2111435 ]
    },
    "properties": {
    "maxDate":640,
    "minDate":300,
    "Title":"[Malandasa]"
    }
  },
  {
    "type": "Feature",
    "geometry": {
       "type": "Point",
       "coordinates":  [ 30.84577000,27.7307690 ]
    },
    "properties": {
    "maxDate":640,
    "minDate":300,
    "Title":"[Manlau]"
    }
  },
  {
    "type": "Feature",
    "geometry": {
       "type": "Point",
       "coordinates":  [ 34.75132800,38.6539920 ]
    },
    "properties": {
    "maxDate":640,
    "minDate":300,
    "Title":"[Matiane]"
    }
  },
  {
    "type": "Feature",
    "geometry": {
       "type": "Point",
       "coordinates":  [ 4.79629900,47.3195330 ]
    },
    "properties": {
    "maxDate":2100,
    "minDate":-330,
    "Title":"[Mediolanum]"
    }
  },
  {
    "type": "Feature",
    "geometry": {
       "type": "Point",
       "coordinates":  [ 45.41412400,32.5508440 ]
    },
    "properties": {
    "maxDate":640,
    "minDate":300,
    "Title":"[Nu'maniya]"
    }
  },
  {
    "type": "Feature",
    "geometry": {
       "type": "Point",
       "coordinates":  [ 44.25493969,35.3698976 ]
    },
    "properties": {
    "maxDate":640,
    "minDate":-3000,
    "Title":"[Nuzi]"
    }
  },
  {
    "type": "Feature",
    "geometry": {
       "type": "Point",
       "coordinates":  [ 29.18713000,36.8604160 ]
    },
    "properties": {
    "maxDate":640,
    "minDate":300,
    "Title":"[Nymphaion]"
    }
  },
  {
    "type": "Feature",
    "geometry": {
       "type": "Point",
       "coordinates":  [ 27.40863900,38.4172140 ]
    },
    "properties": {
    "maxDate":-30,
    "minDate":-330,
    "Title":"[Nymphaion]"
    }
  },
  {
    "type": "Feature",
    "geometry": {
       "type": "Point",
       "coordinates":  [ 11.95098290,42.3379486 ]
    },
    "properties": {
    "maxDate":2100,
    "minDate":-750,
    "Title":"[Orcla]"
    }
  },
  {
    "type": "Feature",
    "geometry": {
       "type": "Point",
       "coordinates":  [ 30.30490950,37.7304960 ]
    },
    "properties": {
    "maxDate":2000,
    "minDate":-1750,
    "Title":"[Praetoria]"
    }
  },
  {
    "type": "Feature",
    "geometry": {
       "type": "Point",
       "coordinates":  [ 47.50000000,34.5000000 ]
    },
    "properties": {
    "maxDate":2000,
    "minDate":-2600000,
    "Title":"[Qirmisin] / [Kermanshahan]"
    }
  },
  {
    "type": "Feature",
    "geometry": {
       "type": "Point",
       "coordinates":  [ 50.83672100,28.9119190 ]
    },
    "properties": {
    "maxDate":750,
    "minDate":-30,
    "Title":"[Rishahr] / Rev Ardashir? / Ionaka?"
    }
  },
  {
    "type": "Feature",
    "geometry": {
       "type": "Point",
       "coordinates":  [ 18.69461600,44.5600240 ]
    },
    "properties": {
    "maxDate":640,
    "minDate":-30,
    "Title":"[Salinae]"
    }
  },
  {
    "type": "Feature",
    "geometry": {
       "type": "Point",
       "coordinates":  [ 43.87673500,34.2001160 ]
    },
    "properties": {
    "maxDate":2000,
    "minDate":-6200,
    "Title":"[Samarra] / ‘Sumere’"
    }
  },
  {
    "type": "Feature",
    "geometry": {
       "type": "Point",
       "coordinates":  [ 53.05890300,36.5614450 ]
    },
    "properties": {
    "maxDate":640,
    "minDate":-330,
    "Title":"[Sari(ya)] / Zadrakarta?"
    }
  },
  {
    "type": "Feature",
    "geometry": {
       "type": "Point",
       "coordinates":  [ 50.36115200,34.9994820 ]
    },
    "properties": {
    "maxDate":640,
    "minDate":-30,
    "Title":"[Saveh]"
    }
  },
  {
    "type": "Feature",
    "geometry": {
       "type": "Point",
       "coordinates":  [ 6.35680200,44.3516310 ]
    },
    "properties": {
    "maxDate":640,
    "minDate":-30,
    "Title":"[Sedena]"
    }
  },
  {
    "type": "Feature",
    "geometry": {
       "type": "Point",
       "coordinates":  [ 53.39602200,35.5723510 ]
    },
    "properties": {
    "maxDate":2000,
    "minDate":-1200,
    "Title":"[Semnan] / Semina"
    }
  },
  {
    "type": "Feature",
    "geometry": {
       "type": "Point",
       "coordinates":  [ 7.24667200,50.5426180 ]
    },
    "properties": {
    "maxDate":640,
    "minDate":-30,
    "Title":"[Sentiacum]?"
    }
  },
  {
    "type": "Feature",
    "geometry": {
       "type": "Point",
       "coordinates":  [ 52.33683000,27.6703450 ]
    },
    "properties": {
    "maxDate":640,
    "minDate":-30,
    "Title":"[Siraf]"
    }
  },
  {
    "type": "Feature",
    "geometry": {
       "type": "Point",
       "coordinates":  [ 34.87141350,38.4800000 ]
    },
    "properties": {
    "maxDate":640,
    "minDate":300,
    "Title":"[Sobesos]"
    }
  },
  {
    "type": "Feature",
    "geometry": {
       "type": "Point",
       "coordinates":  [ 56.73151800,24.3777930 ]
    },
    "properties": {
    "maxDate":640,
    "minDate":-30,
    "Title":"[Sohar]"
    }
  },
  {
    "type": "Feature",
    "geometry": {
       "type": "Point",
       "coordinates":  [ 30.70442700,27.5743600 ]
    },
    "properties": {
    "maxDate":640,
    "minDate":300,
    "Title":"[Tachlout]"
    }
  },
  {
    "type": "Feature",
    "geometry": {
       "type": "Point",
       "coordinates":  [ 34.73779600,38.5417160 ]
    },
    "properties": {
    "maxDate":640,
    "minDate":300,
    "Title":"[Tamisos]"
    }
  },
  {
    "type": "Feature",
    "geometry": {
       "type": "Point",
       "coordinates":  [ 40.56893250,34.9222395 ]
    },
    "properties": {
    "maxDate":2000,
    "minDate":-5500,
    "Title":"[Terqa] / Asicha?"
    }
  },
  {
    "type": "Feature",
    "geometry": {
       "type": "Point",
       "coordinates":  [ 12.41770900,45.4966010 ]
    },
    "properties": {
    "maxDate":640,
    "minDate":300,
    "Title":"[Torcellum]"
    }
  },
  {
    "type": "Feature",
    "geometry": {
       "type": "Point",
       "coordinates":  [ -1.79417200,47.0208450 ]
    },
    "properties": {
    "maxDate":640,
    "minDate":300,
    "Title":"[Vetraria]"
    }
  },
  {
    "type": "Feature",
    "geometry": {
       "type": "Point",
       "coordinates":  [ 11.75613100,44.7532930 ]
    },
    "properties": {
    "maxDate":640,
    "minDate":-30,
    "Title":"[Vicus Aventia]"
    }
  },
  {
    "type": "Feature",
    "geometry": {
       "type": "Point",
       "coordinates":  [ 7.86019200,49.8459470 ]
    },
    "properties": {
    "maxDate":2100,
    "minDate":-30,
    "Title":"[Vicus Cruciniacum]"
    }
  },
  {
    "type": "Feature",
    "geometry": {
       "type": "Point",
       "coordinates":  [ 57.60156900,36.1096370 ]
    },
    "properties": {
    "maxDate":640,
    "minDate":-550,
    "Title":"[Vishpauzatis] / [Busfozar]"
    }
  },
  {
    "type": "Feature",
    "geometry": {
       "type": "Point",
       "coordinates":  [ 10.34765000,45.0143490 ]
    },
    "properties": {
    "maxDate":640,
    "minDate":300,
    "Title":"[Vulturina]"
    }
  },
  {
    "type": "Feature",
    "geometry": {
       "type": "Point",
       "coordinates":  [ 29.72496300,40.8392400 ]
    },
    "properties": {
    "maxDate":300,
    "minDate":-30,
    "Title":"(Tes)Deramoska"
    }
  },
  {
    "type": "Feature",
    "geometry": {
       "type": "Point",
       "coordinates":  [ 30.54233100,39.5289490 ]
    },
    "properties": {
    "maxDate":300,
    "minDate":-30,
    "Title":"Abouadeineita"
    }
  },
  {
    "type": "Feature",
    "geometry": {
       "type": "Point",
       "coordinates":  [ 36.67252500,35.7278370 ]
    },
    "properties": {
    "maxDate":640,
    "minDate":300,
    "Title":"Adana"
    }
  },
  {
    "type": "Feature",
    "geometry": {
       "type": "Point",
       "coordinates":  [ 18.76730250,42.4215365 ]
    },
    "properties": {
    "maxDate":640,
    "minDate":-330,
    "Title":"Agruvium"
    }
  },
  {
    "type": "Feature",
    "geometry": {
       "type": "Point",
       "coordinates":  [ 24.92858100,35.0584170 ]
    },
    "properties": {
    "maxDate":-30,
    "minDate":-330,
    "Title":"Aina?"
    }
  },
  {
    "type": "Feature",
    "geometry": {
       "type": "Point",
       "coordinates":  [ 36.48139600,32.8899330 ]
    },
    "properties": {
    "maxDate":640,
    "minDate":-30,
    "Title":"Airita"
    }
  },
  {
    "type": "Feature",
    "geometry": {
       "type": "Point",
       "coordinates":  [ 29.91318500,38.9073670 ]
    },
    "properties": {
    "maxDate":640,
    "minDate":-30,
    "Title":"Alia"
    }
  },
  {
    "type": "Feature",
    "geometry": {
       "type": "Point",
       "coordinates":  [ 29.28327000,39.2757920 ]
    },
    "properties": {
    "maxDate":640,
    "minDate":-30,
    "Title":"Aliana"
    }
  },
  {
    "type": "Feature",
    "geometry": {
       "type": "Point",
       "coordinates":  [ 0.40542300,47.3250520 ]
    },
    "properties": {
    "maxDate":640,
    "minDate":300,
    "Title":"Alingavia"
    }
  },
  {
    "type": "Feature",
    "geometry": {
       "type": "Point",
       "coordinates":  [ 9.53890600,36.5040070 ]
    },
    "properties": {
    "maxDate":300,
    "minDate":-330,
    "Title":"Alma"
    }
  },
  {
    "type": "Feature",
    "geometry": {
       "type": "Point",
       "coordinates":  [ 6.88396360,45.6805010 ]
    },
    "properties": {
    "maxDate":300,
    "minDate":-330,
    "Title":"Alpis Graia"
    }
  },
  {
    "type": "Feature",
    "geometry": {
       "type": "Point",
       "coordinates":  [ 0.98722400,47.4117990 ]
    },
    "properties": {
    "maxDate":640,
    "minDate":-750,
    "Title":"Ambiacum"
    }
  },
  {
    "type": "Feature",
    "geometry": {
       "type": "Point",
       "coordinates":  [ 28.18520500,36.9456240 ]
    },
    "properties": {
    "maxDate":-30,
    "minDate":-330,
    "Title":"Amnista"
    }
  },
  {
    "type": "Feature",
    "geometry": {
       "type": "Point",
       "coordinates":  [ 1.18127700,46.1323380 ]
    },
    "properties": {
    "maxDate":640,
    "minDate":-30,
    "Title":"Andecamulum"
    }
  },
  {
    "type": "Feature",
    "geometry": {
       "type": "Point",
       "coordinates":  [ 32.25941600,38.8039100 ]
    },
    "properties": {
    "maxDate":300,
    "minDate":-30,
    "Title":"Andeira"
    }
  },
  {
    "type": "Feature",
    "geometry": {
       "type": "Point",
       "coordinates":  [ 32.65802700,39.6300290 ]
    },
    "properties": {
    "maxDate":300,
    "minDate":-30,
    "Title":"Androna"
    }
  },
  {
    "type": "Feature",
    "geometry": {
       "type": "Point",
       "coordinates":  [ 33.07533400,38.3390360 ]
    },
    "properties": {
    "maxDate":640,
    "minDate":300,
    "Title":"Anzoulada"
    }
  },
  {
    "type": "Feature",
    "geometry": {
       "type": "Point",
       "coordinates":  [ 31.14786500,38.9594520 ]
    },
    "properties": {
    "maxDate":640,
    "minDate":-30,
    "Title":"Appolena"
    }
  },
  {
    "type": "Feature",
    "geometry": {
       "type": "Point",
       "coordinates":  [ 32.15189600,38.4349690 ]
    },
    "properties": {
    "maxDate":300,
    "minDate":-30,
    "Title":"Aralla"
    }
  },
  {
    "type": "Feature",
    "geometry": {
       "type": "Point",
       "coordinates":  [ 4.68157200,43.8961290 ]
    },
    "properties": {
    "maxDate":300,
    "minDate":-30,
    "Title":"Aramo?"
    }
  },
  {
    "type": "Feature",
    "geometry": {
       "type": "Point",
       "coordinates":  [ 4.19330200,43.7857980 ]
    },
    "properties": {
    "maxDate":300,
    "minDate":-30,
    "Title":"Arandunum"
    }
  },
  {
    "type": "Feature",
    "geometry": {
       "type": "Point",
       "coordinates":  [ 29.88522600,40.7613700 ]
    },
    "properties": {
    "maxDate":300,
    "minDate":-30,
    "Title":"Arbeila"
    }
  },
  {
    "type": "Feature",
    "geometry": {
       "type": "Point",
       "coordinates":  [ 32.85599300,39.2358080 ]
    },
    "properties": {
    "maxDate":300,
    "minDate":-30,
    "Title":"Area"
    }
  },
  {
    "type": "Feature",
    "geometry": {
       "type": "Point",
       "coordinates":  [ 35.57827300,33.4713890 ]
    },
    "properties": {
    "maxDate":300,
    "minDate":-30,
    "Title":"Aremtha"
    }
  },
  {
    "type": "Feature",
    "geometry": {
       "type": "Point",
       "coordinates":  [ 1.51722000,46.5940360 ]
    },
    "properties": {
    "maxDate":2100,
    "minDate":-30,
    "Title":"Argentomagus"
    }
  },
  {
    "type": "Feature",
    "geometry": {
       "type": "Point",
       "coordinates":  [ 25.45028300,34.9925680 ]
    },
    "properties": {
    "maxDate":640,
    "minDate":-550,
    "Title":"Aria?"
    }
  },
  {
    "type": "Feature",
    "geometry": {
       "type": "Point",
       "coordinates":  [ 40.08273850,38.2405025 ]
    },
    "properties": {
    "maxDate":640,
    "minDate":-330,
    "Title":"Arkathiokerta / ‘Artagigarta’ / Baras / Basileon Phrourion / Ingila"
    }
  },
  {
    "type": "Feature",
    "geometry": {
       "type": "Point",
       "coordinates":  [ 32.18944300,40.1638880 ]
    },
    "properties": {
    "maxDate":300,
    "minDate":-30,
    "Title":"Artiknos"
    }
  },
  {
    "type": "Feature",
    "geometry": {
       "type": "Point",
       "coordinates":  [ 6.87828200,36.9038465 ]
    },
    "properties": {
    "maxDate":640,
    "minDate":-330,
    "Title":"Astora?"
    }
  },
  {
    "type": "Feature",
    "geometry": {
       "type": "Point",
       "coordinates":  [ 32.42250700,37.0236370 ]
    },
    "properties": {
    "maxDate":300,
    "minDate":-30,
    "Title":"Astra"
    }
  },
  {
    "type": "Feature",
    "geometry": {
       "type": "Point",
       "coordinates":  [ 36.58284000,32.7609670 ]
    },
    "properties": {
    "maxDate":640,
    "minDate":-30,
    "Title":"Athela"
    }
  },
  {
    "type": "Feature",
    "geometry": {
       "type": "Point",
       "coordinates":  [ -0.26328200,43.7014020 ]
    },
    "properties": {
    "maxDate":2100,
    "minDate":-30,
    "Title":"Atura / Vicus Iulii"
    }
  },
  {
    "type": "Feature",
    "geometry": {
       "type": "Point",
       "coordinates":  [ 13.57495600,42.2540570 ]
    },
    "properties": {
    "maxDate":640,
    "minDate":-30,
    "Title":"Aufenginum"
    }
  },
  {
    "type": "Feature",
    "geometry": {
       "type": "Point",
       "coordinates":  [ 11.50482700,42.6662550 ]
    },
    "properties": {
    "maxDate":640,
    "minDate":-750,
    "Title":"Aurinia / Saturnia"
    }
  },
  {
    "type": "Feature",
    "geometry": {
       "type": "Point",
       "coordinates":  [ 9.79452000,33.8836020 ]
    },
    "properties": {
    "maxDate":640,
    "minDate":-30,
    "Title":"Aves"
    }
  },
  {
    "type": "Feature",
    "geometry": {
       "type": "Point",
       "coordinates":  [ 31.65831800,38.3539270 ]
    },
    "properties": {
    "maxDate":300,
    "minDate":-30,
    "Title":"Azareis / Ezareis"
    }
  },
  {
    "type": "Feature",
    "geometry": {
       "type": "Point",
       "coordinates":  [ 17.00577100,41.0091670 ]
    },
    "properties": {
    "maxDate":640,
    "minDate":-750,
    "Title":"Azetium"
    }
  },
  {
    "type": "Feature",
    "geometry": {
       "type": "Point",
       "coordinates":  [ -3.50766200,38.2046650 ]
    },
    "properties": {
    "maxDate":300,
    "minDate":-330,
    "Title":"Baesucci"
    }
  },
  {
    "type": "Feature",
    "geometry": {
       "type": "Point",
       "coordinates":  [ 0.61394800,47.3399160 ]
    },
    "properties": {
    "maxDate":640,
    "minDate":-30,
    "Title":"Balatedinis?"
    }
  },
  {
    "type": "Feature",
    "geometry": {
       "type": "Point",
       "coordinates":  [ 30.58217200,38.2582670 ]
    },
    "properties": {
    "maxDate":640,
    "minDate":300,
    "Title":"Banboulena"
    }
  },
  {
    "type": "Feature",
    "geometry": {
       "type": "Point",
       "coordinates":  [ 30.02604500,40.9816900 ]
    },
    "properties": {
    "maxDate":300,
    "minDate":-30,
    "Title":"Baradendromia"
    }
  },
  {
    "type": "Feature",
    "geometry": {
       "type": "Point",
       "coordinates":  [ 36.25213100,36.1521030 ]
    },
    "properties": {
    "maxDate":640,
    "minDate":300,
    "Title":"Basileia"
    }
  },
  {
    "type": "Feature",
    "geometry": {
       "type": "Point",
       "coordinates":  [ -4.05017800,37.8308770 ]
    },
    "properties": {
    "maxDate":300,
    "minDate":-30,
    "Title":"Batora"
    }
  },
  {
    "type": "Feature",
    "geometry": {
       "type": "Point",
       "coordinates":  [ 21.09892600,40.4577650 ]
    },
    "properties": {
    "maxDate":300,
    "minDate":-30,
    "Title":"Battyna"
    }
  },
  {
    "type": "Feature",
    "geometry": {
       "type": "Point",
       "coordinates":  [ 12.47772100,47.9348240 ]
    },
    "properties": {
    "maxDate":640,
    "minDate":-30,
    "Title":"Bedaium"
    }
  },
  {
    "type": "Feature",
    "geometry": {
       "type": "Point",
       "coordinates":  [ 5.68640050,45.7601375 ]
    },
    "properties": {
    "maxDate":640,
    "minDate":-30,
    "Title":"Bellicum"
    }
  },
  {
    "type": "Feature",
    "geometry": {
       "type": "Point",
       "coordinates":  [ 37.57356300,36.4164010 ]
    },
    "properties": {
    "maxDate":640,
    "minDate":300,
    "Title":"Beselatha"
    }
  },
  {
    "type": "Feature",
    "geometry": {
       "type": "Point",
       "coordinates":  [ 10.24657050,36.2630175 ]
    },
    "properties": {
    "maxDate":640,
    "minDate":-30,
    "Title":"Biia"
    }
  },
  {
    "type": "Feature",
    "geometry": {
       "type": "Point",
       "coordinates":  [ 3.33857300,45.7227770 ]
    },
    "properties": {
    "maxDate":640,
    "minDate":-330,
    "Title":"Biliomagus"
    }
  },
  {
    "type": "Feature",
    "geometry": {
       "type": "Point",
       "coordinates":  [ 9.62740200,36.3276890 ]
    },
    "properties": {
    "maxDate":300,
    "minDate":-30,
    "Title":"Biracsaccaria"
    }
  },
  {
    "type": "Feature",
    "geometry": {
       "type": "Point",
       "coordinates":  [ 30.18537300,39.0463790 ]
    },
    "properties": {
    "maxDate":640,
    "minDate":-30,
    "Title":"Birgena"
    }
  },
  {
    "type": "Feature",
    "geometry": {
       "type": "Point",
       "coordinates":  [ 8.20601600,35.1353240 ]
    },
    "properties": {
    "maxDate":300,
    "minDate":-30,
    "Title":"Bit(…)ensia"
    }
  },
  {
    "type": "Feature",
    "geometry": {
       "type": "Point",
       "coordinates":  [ 3.15042700,39.9354990 ]
    },
    "properties": {
    "maxDate":640,
    "minDate":-330,
    "Title":"Bocchori"
    }
  },
  {
    "type": "Feature",
    "geometry": {
       "type": "Point",
       "coordinates":  [ 0.12401000,42.0349160 ]
    },
    "properties": {
    "maxDate":300,
    "minDate":-30,
    "Title":"Boletum"
    }
  },
  {
    "type": "Feature",
    "geometry": {
       "type": "Point",
       "coordinates":  [ 27.49824200,38.0099530 ]
    },
    "properties": {
    "maxDate":300,
    "minDate":-30,
    "Title":"Boneita"
    }
  },
  {
    "type": "Feature",
    "geometry": {
       "type": "Point",
       "coordinates":  [ 33.12502200,41.4874100 ]
    },
    "properties": {
    "maxDate":300,
    "minDate":-30,
    "Title":"Bonita"
    }
  },
  {
    "type": "Feature",
    "geometry": {
       "type": "Point",
       "coordinates":  [ 6.33830900,43.1419610 ]
    },
    "properties": {
    "maxDate":300,
    "minDate":-30,
    "Title":"Borma"
    }
  },
  {
    "type": "Feature",
    "geometry": {
       "type": "Point",
       "coordinates":  [ 26.30718100,38.3272450 ]
    },
    "properties": {
    "maxDate":-330,
    "minDate":-550,
    "Title":"Boutheia"
    }
  },
  {
    "type": "Feature",
    "geometry": {
       "type": "Point",
       "coordinates":  [ 4.20705200,43.9856600 ]
    },
    "properties": {
    "maxDate":300,
    "minDate":-550,
    "Title":"Briginnum?"
    }
  },
  {
    "type": "Feature",
    "geometry": {
       "type": "Point",
       "coordinates":  [ 6.75806700,43.8646270 ]
    },
    "properties": {
    "maxDate":300,
    "minDate":-30,
    "Title":"Brigomagus"
    }
  },
  {
    "type": "Feature",
    "geometry": {
       "type": "Point",
       "coordinates":  [ 5.45929200,45.7822120 ]
    },
    "properties": {
    "maxDate":640,
    "minDate":-30,
    "Title":"Brioratis"
    }
  },
  {
    "type": "Feature",
    "geometry": {
       "type": "Point",
       "coordinates":  [ 0.38479100,47.1209370 ]
    },
    "properties": {
    "maxDate":640,
    "minDate":-30,
    "Title":"Briotreidis?"
    }
  },
  {
    "type": "Feature",
    "geometry": {
       "type": "Point",
       "coordinates":  [ -1.53187000,41.8351730 ]
    },
    "properties": {
    "maxDate":300,
    "minDate":-330,
    "Title":"Bursao / Boursada"
    }
  },
  {
    "type": "Feature",
    "geometry": {
       "type": "Point",
       "coordinates":  [ 29.65736700,40.9065960 ]
    },
    "properties": {
    "maxDate":300,
    "minDate":-30,
    "Title":"Byzapena"
    }
  },
  {
    "type": "Feature",
    "geometry": {
       "type": "Point",
       "coordinates":  [ 36.75343335,34.1682639 ]
    },
    "properties": {
    "maxDate":640,
    "minDate":-30,
    "Title":"Cara / ‘Cehere’ / Chonacara?"
    }
  },
  {
    "type": "Feature",
    "geometry": {
       "type": "Point",
       "coordinates":  [ -0.16118800,47.3062930 ]
    },
    "properties": {
    "maxDate":640,
    "minDate":-330,
    "Title":"Carnona"
    }
  },
  {
    "type": "Feature",
    "geometry": {
       "type": "Point",
       "coordinates":  [ 6.46488500,36.4884170 ]
    },
    "properties": {
    "maxDate":640,
    "minDate":-30,
    "Title":"Castellum Caldis"
    }
  },
  {
    "type": "Feature",
    "geometry": {
       "type": "Point",
       "coordinates":  [ 4.64984100,35.7663780 ]
    },
    "properties": {
    "maxDate":640,
    "minDate":-30,
    "Title":"Castellum Turrense"
    }
  },
  {
    "type": "Feature",
    "geometry": {
       "type": "Point",
       "coordinates":  [ 10.06609700,34.2523130 ]
    },
    "properties": {
    "maxDate":640,
    "minDate":-30,
    "Title":"Cellae Picentinae Vicus?"
    }
  },
  {
    "type": "Feature",
    "geometry": {
       "type": "Point",
       "coordinates":  [ 36.25765900,33.6703120 ]
    },
    "properties": {
    "maxDate":300,
    "minDate":-330,
    "Title":"Chalybon"
    }
  },
  {
    "type": "Feature",
    "geometry": {
       "type": "Point",
       "coordinates":  [ 29.29453800,40.4594050 ]
    },
    "properties": {
    "maxDate":300,
    "minDate":-30,
    "Title":"Charmidea"
    }
  },
  {
    "type": "Feature",
    "geometry": {
       "type": "Point",
       "coordinates":  [ 36.60051700,35.6615330 ]
    },
    "properties": {
    "maxDate":640,
    "minDate":300,
    "Title":"Chasa"
    }
  },
  {
    "type": "Feature",
    "geometry": {
       "type": "Point",
       "coordinates":  [ 29.61943500,41.1757300 ]
    },
    "properties": {
    "maxDate":300,
    "minDate":-30,
    "Title":"Chelaita"
    }
  },
  {
    "type": "Feature",
    "geometry": {
       "type": "Point",
       "coordinates":  [ 9.51024800,36.5795410 ]
    },
    "properties": {
    "maxDate":300,
    "minDate":-30,
    "Title":"Chidibbia"
    }
  },
  {
    "type": "Feature",
    "geometry": {
       "type": "Point",
       "coordinates":  [ 9.58330300,36.8998930 ]
    },
    "properties": {
    "maxDate":640,
    "minDate":-330,
    "Title":"Chiniava"
    }
  },
  {
    "type": "Feature",
    "geometry": {
       "type": "Point",
       "coordinates":  [ 27.40331350,38.1434491 ]
    },
    "properties": {
    "maxDate":300,
    "minDate":-30,
    "Title":"Chondria"
    }
  },
  {
    "type": "Feature",
    "geometry": {
       "type": "Point",
       "coordinates":  [ 27.88522000,38.7506810 ]
    },
    "properties": {
    "maxDate":640,
    "minDate":-30,
    "Title":"Choria"
    }
  },
  {
    "type": "Feature",
    "geometry": {
       "type": "Point",
       "coordinates":  [ 39.06122900,39.0387390 ]
    },
    "properties": {
    "maxDate":640,
    "minDate":300,
    "Title":"Chozana"
    }
  },
  {
    "type": "Feature",
    "geometry": {
       "type": "Point",
       "coordinates":  [ -8.43861700,37.1898760 ]
    },
    "properties": {
    "maxDate":640,
    "minDate":-750,
    "Title":"Cibilis"
    }
  },
  {
    "type": "Feature",
    "geometry": {
       "type": "Point",
       "coordinates":  [ 9.75668850,36.7779830 ]
    },
    "properties": {
    "maxDate":640,
    "minDate":-330,
    "Title":"Cincaris"
    }
  },
  {
    "type": "Feature",
    "geometry": {
       "type": "Point",
       "coordinates":  [ 0.85292400,47.0602910 ]
    },
    "properties": {
    "maxDate":640,
    "minDate":300,
    "Title":"Cisomagus"
    }
  },
  {
    "type": "Feature",
    "geometry": {
       "type": "Point",
       "coordinates":  [ -7.23058350,40.9095085 ]
    },
    "properties": {
    "maxDate":640,
    "minDate":-30,
    "Title":"Civitas Aravorum"
    }
  },
  {
    "type": "Feature",
    "geometry": {
       "type": "Point",
       "coordinates":  [ -7.05121200,41.2743290 ]
    },
    "properties": {
    "maxDate":640,
    "minDate":-30,
    "Title":"Civitas Baniensium"
    }
  },
  {
    "type": "Feature",
    "geometry": {
       "type": "Point",
       "coordinates":  [ 10.27860400,45.9434500 ]
    },
    "properties": {
    "maxDate":640,
    "minDate":-30,
    "Title":"Civitas Camunnorum"
    }
  },
  {
    "type": "Feature",
    "geometry": {
       "type": "Point",
       "coordinates":  [ 9.78081000,36.0273310 ]
    },
    "properties": {
    "maxDate":300,
    "minDate":-330,
    "Title":"Civitas Sivalitana"
    }
  },
  {
    "type": "Feature",
    "geometry": {
       "type": "Point",
       "coordinates":  [ -6.80553500,41.7986750 ]
    },
    "properties": {
    "maxDate":300,
    "minDate":-330,
    "Title":"Civitas Zoelarum"
    }
  },
  {
    "type": "Feature",
    "geometry": {
       "type": "Point",
       "coordinates":  [ 0.07469600,47.2107970 ]
    },
    "properties": {
    "maxDate":640,
    "minDate":-30,
    "Title":"Condate"
    }
  },
  {
    "type": "Feature",
    "geometry": {
       "type": "Point",
       "coordinates":  [ -2.02929800,54.9781890 ]
    },
    "properties": {
    "maxDate":2100,
    "minDate":-30,
    "Title":"Coriosopitum / Coria"
    }
  },
  {
    "type": "Feature",
    "geometry": {
       "type": "Point",
       "coordinates":  [ -2.43308700,41.1725700 ]
    },
    "properties": {
    "maxDate":300,
    "minDate":-330,
    "Title":"Cortona"
    }
  },
  {
    "type": "Feature",
    "geometry": {
       "type": "Point",
       "coordinates":  [ 10.58492900,36.6813500 ]
    },
    "properties": {
    "maxDate":640,
    "minDate":-30,
    "Title":"Culusa"
    }
  },
  {
    "type": "Feature",
    "geometry": {
       "type": "Point",
       "coordinates":  [ 7.31446800,43.8119650 ]
    },
    "properties": {
    "maxDate":300,
    "minDate":-30,
    "Title":"Cuntinus"
    }
  },
  {
    "type": "Feature",
    "geometry": {
       "type": "Point",
       "coordinates":  [ 9.33169900,35.9701510 ]
    },
    "properties": {
    "maxDate":640,
    "minDate":-30,
    "Title":"Cuttilula"
    }
  },
  {
    "type": "Feature",
    "geometry": {
       "type": "Point",
       "coordinates":  [ 29.97890300,40.0113850 ]
    },
    "properties": {
    "maxDate":300,
    "minDate":-30,
    "Title":"Dabla"
    }
  },
  {
    "type": "Feature",
    "geometry": {
       "type": "Point",
       "coordinates":  [ 28.35291300,38.1801100 ]
    },
    "properties": {
    "maxDate":300,
    "minDate":-30,
    "Title":"Daredda"
    }
  },
  {
    "type": "Feature",
    "geometry": {
       "type": "Point",
       "coordinates":  [ 30.16552800,41.0689840 ]
    },
    "properties": {
    "maxDate":300,
    "minDate":-30,
    "Title":"Desa"
    }
  },
  {
    "type": "Feature",
    "geometry": {
       "type": "Point",
       "coordinates":  [ 28.39500400,38.1822210 ]
    },
    "properties": {
    "maxDate":300,
    "minDate":-30,
    "Title":"Diginda"
    }
  },
  {
    "type": "Feature",
    "geometry": {
       "type": "Point",
       "coordinates":  [ 1.70388600,46.8274030 ]
    },
    "properties": {
    "maxDate":640,
    "minDate":-30,
    "Title":"Dolum"
    }
  },
  {
    "type": "Feature",
    "geometry": {
       "type": "Point",
       "coordinates":  [ 21.68493400,41.2671600 ]
    },
    "properties": {
    "maxDate":300,
    "minDate":-30,
    "Title":"Dostoneoi"
    }
  },
  {
    "type": "Feature",
    "geometry": {
       "type": "Point",
       "coordinates":  [ 11.99543500,45.9012900 ]
    },
    "properties": {
    "maxDate":640,
    "minDate":300,
    "Title":"Duplavilis"
    }
  },
  {
    "type": "Feature",
    "geometry": {
       "type": "Point",
       "coordinates":  [ 1.08386000,51.2798760 ]
    },
    "properties": {
    "maxDate":2100,
    "minDate":-30,
    "Title":"Durovernum"
    }
  },
  {
    "type": "Feature",
    "geometry": {
       "type": "Point",
       "coordinates":  [ 30.18050300,40.3376100 ]
    },
    "properties": {
    "maxDate":300,
    "minDate":-30,
    "Title":"Eirakla"
    }
  },
  {
    "type": "Feature",
    "geometry": {
       "type": "Point",
       "coordinates":  [ 22.21147000,39.0803200 ]
    },
    "properties": {
    "maxDate":300,
    "minDate":-330,
    "Title":"Ekarra"
    }
  },
  {
    "type": "Feature",
    "geometry": {
       "type": "Point",
       "coordinates":  [ 43.35333300,39.0265360 ]
    },
    "properties": {
    "maxDate":640,
    "minDate":300,
    "Title":"Elegoana"
    }
  },
  {
    "type": "Feature",
    "geometry": {
       "type": "Point",
       "coordinates":  [ 29.22982500,37.8190500 ]
    },
    "properties": {
    "maxDate":300,
    "minDate":-30,
    "Title":"Eleinokapria"
    }
  },
  {
    "type": "Feature",
    "geometry": {
       "type": "Point",
       "coordinates":  [ 6.47205300,36.4248560 ]
    },
    "properties": {
    "maxDate":640,
    "minDate":-30,
    "Title":"Emadaucapensis?"
    }
  },
  {
    "type": "Feature",
    "geometry": {
       "type": "Point",
       "coordinates":  [ 32.63856750,40.9676475 ]
    },
    "properties": {
    "maxDate":300,
    "minDate":-30,
    "Title":"Endeira"
    }
  },
  {
    "type": "Feature",
    "geometry": {
       "type": "Point",
       "coordinates":  [ 32.14994700,40.1337590 ]
    },
    "properties": {
    "maxDate":640,
    "minDate":300,
    "Title":"Ergobrotis"
    }
  },
  {
    "type": "Feature",
    "geometry": {
       "type": "Point",
       "coordinates":  [ 30.92793800,38.9906140 ]
    },
    "properties": {
    "maxDate":300,
    "minDate":-30,
    "Title":"Etsyena"
    }
  },
  {
    "type": "Feature",
    "geometry": {
       "type": "Point",
       "coordinates":  [ 1.99377500,46.9483600 ]
    },
    "properties": {
    "maxDate":640,
    "minDate":-30,
    "Title":"Exolidunum"
    }
  },
  {
    "type": "Feature",
    "geometry": {
       "type": "Point",
       "coordinates":  [ 1.51474900,46.1445890 ]
    },
    "properties": {
    "maxDate":640,
    "minDate":300,
    "Title":"Ferruciacum"
    }
  },
  {
    "type": "Feature",
    "geometry": {
       "type": "Point",
       "coordinates":  [ 12.64498100,43.6850260 ]
    },
    "properties": {
    "maxDate":640,
    "minDate":-30,
    "Title":"Firmidianum"
    }
  },
  {
    "type": "Feature",
    "geometry": {
       "type": "Point",
       "coordinates":  [ 7.47526600,44.5180810 ]
    },
    "properties": {
    "maxDate":640,
    "minDate":-30,
    "Title":"Forum Germanici"
    }
  },
  {
    "type": "Feature",
    "geometry": {
       "type": "Point",
       "coordinates":  [ 9.67968800,45.4988150 ]
    },
    "properties": {
    "maxDate":640,
    "minDate":-30,
    "Title":"Forum Novum"
    }
  },
  {
    "type": "Feature",
    "geometry": {
       "type": "Point",
       "coordinates":  [ 37.51613300,36.0857425 ]
    },
    "properties": {
    "maxDate":640,
    "minDate":300,
    "Title":"Gabboula"
    }
  },
  {
    "type": "Feature",
    "geometry": {
       "type": "Point",
       "coordinates":  [ 1.65137010,52.5825071 ]
    },
    "properties": {
    "maxDate":2100,
    "minDate":300,
    "Title":"Gariann(on)um"
    }
  },
  {
    "type": "Feature",
    "geometry": {
       "type": "Point",
       "coordinates":  [ -0.23258527,47.3429772 ]
    },
    "properties": {
    "maxDate":640,
    "minDate":-30,
    "Title":"Geinum"
    }
  },
  {
    "type": "Feature",
    "geometry": {
       "type": "Point",
       "coordinates":  [ 1.06150400,45.4927150 ]
    },
    "properties": {
    "maxDate":640,
    "minDate":-330,
    "Title":"Gemiliacum"
    }
  },
  {
    "type": "Feature",
    "geometry": {
       "type": "Point",
       "coordinates":  [ 9.14571700,36.3968120 ]
    },
    "properties": {
    "maxDate":640,
    "minDate":-30,
    "Title":"Geumi"
    }
  },
  {
    "type": "Feature",
    "geometry": {
       "type": "Point",
       "coordinates":  [ 9.95997900,36.5200000 ]
    },
    "properties": {
    "maxDate":640,
    "minDate":-30,
    "Title":"Giufi"
    }
  },
  {
    "type": "Feature",
    "geometry": {
       "type": "Point",
       "coordinates":  [ 5.88526300,43.7586350 ]
    },
    "properties": {
    "maxDate":300,
    "minDate":-30,
    "Title":"Griselica"
    }
  },
  {
    "type": "Feature",
    "geometry": {
       "type": "Point",
       "coordinates":  [ 16.70807900,41.0119630 ]
    },
    "properties": {
    "maxDate":300,
    "minDate":-330,
    "Title":"Grumum"
    }
  },
  {
    "type": "Feature",
    "geometry": {
       "type": "Point",
       "coordinates":  [ 9.76553600,37.1655240 ]
    },
    "properties": {
    "maxDate":640,
    "minDate":-30,
    "Title":"Gunela?"
    }
  },
  {
    "type": "Feature",
    "geometry": {
       "type": "Point",
       "coordinates":  [ 36.27611400,33.0123600 ]
    },
    "properties": {
    "maxDate":640,
    "minDate":-30,
    "Title":"Habiba"
    }
  },
  {
    "type": "Feature",
    "geometry": {
       "type": "Point",
       "coordinates":  [ 31.69019500,40.0826710 ]
    },
    "properties": {
    "maxDate":640,
    "minDate":300,
    "Title":"Hieronpotamon"
    }
  },
  {
    "type": "Feature",
    "geometry": {
       "type": "Point",
       "coordinates":  [ 29.99207900,38.2364150 ]
    },
    "properties": {
    "maxDate":640,
    "minDate":-30,
    "Title":"Homadena"
    }
  },
  {
    "type": "Feature",
    "geometry": {
       "type": "Point",
       "coordinates":  [ 27.70480200,37.3033070 ]
    },
    "properties": {
    "maxDate":2100,
    "minDate":-2000,
    "Title":"Hydai / Kydai"
    }
  },
  {
    "type": "Feature",
    "geometry": {
       "type": "Point",
       "coordinates":  [ 30.56182600,37.4154140 ]
    },
    "properties": {
    "maxDate":300,
    "minDate":-330,
    "Title":"Hyia"
    }
  },
  {
    "type": "Feature",
    "geometry": {
       "type": "Point",
       "coordinates":  [ 27.73557800,37.3785610 ]
    },
    "properties": {
    "maxDate":-30,
    "minDate":-550,
    "Title":"Hylimos / Olymos"
    }
  },
  {
    "type": "Feature",
    "geometry": {
       "type": "Point",
       "coordinates":  [ 25.09579500,35.1130990 ]
    },
    "properties": {
    "maxDate":300,
    "minDate":-550,
    "Title":"Hyrtaia?"
    }
  },
  {
    "type": "Feature",
    "geometry": {
       "type": "Point",
       "coordinates":  [ 28.23466900,39.0270730 ]
    },
    "properties": {
    "maxDate":300,
    "minDate":-30,
    "Title":"Hyssa"
    }
  },
  {
    "type": "Feature",
    "geometry": {
       "type": "Point",
       "coordinates":  [ 28.60679900,38.5869690 ]
    },
    "properties": {
    "maxDate":300,
    "minDate":-30,
    "Title":"Iaza"
    }
  },
  {
    "type": "Feature",
    "geometry": {
       "type": "Point",
       "coordinates":  [ 3.25687700,45.5566130 ]
    },
    "properties": {
    "maxDate":640,
    "minDate":300,
    "Title":"Iciodorum"
    }
  },
  {
    "type": "Feature",
    "geometry": {
       "type": "Point",
       "coordinates":  [ -7.14491678,39.9962866 ]
    },
    "properties": {
    "maxDate":640,
    "minDate":-330,
    "Title":"Igaeditania?"
    }
  },
  {
    "type": "Feature",
    "geometry": {
       "type": "Point",
       "coordinates":  [ -1.30722600,42.6528990 ]
    },
    "properties": {
    "maxDate":300,
    "minDate":-30,
    "Title":"Ilu(m)beris"
    }
  },
  {
    "type": "Feature",
    "geometry": {
       "type": "Point",
       "coordinates":  [ 33.94823900,36.4549750 ]
    },
    "properties": {
    "maxDate":300,
    "minDate":-30,
    "Title":"Imbrioga"
    }
  },
  {
    "type": "Feature",
    "geometry": {
       "type": "Point",
       "coordinates":  [ 28.38583700,38.6659100 ]
    },
    "properties": {
    "maxDate":300,
    "minDate":-30,
    "Title":"Ioudda"
    }
  },
  {
    "type": "Feature",
    "geometry": {
       "type": "Point",
       "coordinates":  [ 40.14610100,39.6005280 ]
    },
    "properties": {
    "maxDate":640,
    "minDate":300,
    "Title":"Ioustiniane"
    }
  },
  {
    "type": "Feature",
    "geometry": {
       "type": "Point",
       "coordinates":  [ -4.39041000,37.6724200 ]
    },
    "properties": {
    "maxDate":300,
    "minDate":-330,
    "Title":"Ipsca"
    }
  },
  {
    "type": "Feature",
    "geometry": {
       "type": "Point",
       "coordinates":  [ 29.88851750,36.2170975 ]
    },
    "properties": {
    "maxDate":-30,
    "minDate":-330,
    "Title":"Istlada"
    }
  },
  {
    "type": "Feature",
    "geometry": {
       "type": "Point",
       "coordinates":  [ 29.28933300,38.1687340 ]
    },
    "properties": {
    "maxDate":300,
    "minDate":-30,
    "Title":"Kagyetteia"
    }
  },
  {
    "type": "Feature",
    "geometry": {
       "type": "Point",
       "coordinates":  [ 27.88382500,38.0890370 ]
    },
    "properties": {
    "maxDate":-30,
    "minDate":-330,
    "Title":"Kaira"
    }
  },
  {
    "type": "Feature",
    "geometry": {
       "type": "Point",
       "coordinates":  [ 31.62535300,37.3469680 ]
    },
    "properties": {
    "maxDate":300,
    "minDate":-30,
    "Title":"Kaklouma"
    }
  },
  {
    "type": "Feature",
    "geometry": {
       "type": "Point",
       "coordinates":  [ 28.90766100,25.5489880 ]
    },
    "properties": {
    "maxDate":2100,
    "minDate":-30,
    "Title":"Kalamon"
    }
  },
  {
    "type": "Feature",
    "geometry": {
       "type": "Point",
       "coordinates":  [ 30.02637100,40.7852780 ]
    },
    "properties": {
    "maxDate":300,
    "minDate":-30,
    "Title":"Kalasyrta"
    }
  },
  {
    "type": "Feature",
    "geometry": {
       "type": "Point",
       "coordinates":  [ 34.17946050,36.5266000 ]
    },
    "properties": {
    "maxDate":640,
    "minDate":-330,
    "Title":"Kanytelis"
    }
  },
  {
    "type": "Feature",
    "geometry": {
       "type": "Point",
       "coordinates":  [ 36.90324300,36.3416640 ]
    },
    "properties": {
    "maxDate":640,
    "minDate":300,
    "Title":"Kaprokera"
    }
  },
  {
    "type": "Feature",
    "geometry": {
       "type": "Point",
       "coordinates":  [ 36.60872000,36.1707060 ]
    },
    "properties": {
    "maxDate":640,
    "minDate":300,
    "Title":"Kaprokilla"
    }
  },
  {
    "type": "Feature",
    "geometry": {
       "type": "Point",
       "coordinates":  [ 27.71348600,39.0128650 ]
    },
    "properties": {
    "maxDate":300,
    "minDate":-30,
    "Title":"Karena"
    }
  },
  {
    "type": "Feature",
    "geometry": {
       "type": "Point",
       "coordinates":  [ 30.74135300,38.3258840 ]
    },
    "properties": {
    "maxDate":300,
    "minDate":-330,
    "Title":"Karmena"
    }
  },
  {
    "type": "Feature",
    "geometry": {
       "type": "Point",
       "coordinates":  [ 32.52445100,40.9960090 ]
    },
    "properties": {
    "maxDate":300,
    "minDate":-30,
    "Title":"Karza"
    }
  },
  {
    "type": "Feature",
    "geometry": {
       "type": "Point",
       "coordinates":  [ 28.06845000,36.6095140 ]
    },
    "properties": {
    "maxDate":300,
    "minDate":-550,
    "Title":"Kasara"
    }
  },
  {
    "type": "Feature",
    "geometry": {
       "type": "Point",
       "coordinates":  [ 30.26348600,40.6905130 ]
    },
    "properties": {
    "maxDate":300,
    "minDate":-30,
    "Title":"Kassa"
    }
  },
  {
    "type": "Feature",
    "geometry": {
       "type": "Point",
       "coordinates":  [ 29.38464100,38.5960280 ]
    },
    "properties": {
    "maxDate":640,
    "minDate":-30,
    "Title":"Kaualena"
    }
  },
  {
    "type": "Feature",
    "geometry": {
       "type": "Point",
       "coordinates":  [ 32.24506600,38.5168170 ]
    },
    "properties": {
    "maxDate":300,
    "minDate":-30,
    "Title":"Keissia"
    }
  },
  {
    "type": "Feature",
    "geometry": {
       "type": "Point",
       "coordinates":  [ 31.21503700,41.0999990 ]
    },
    "properties": {
    "maxDate":300,
    "minDate":-30,
    "Title":"Kelesa"
    }
  },
  {
    "type": "Feature",
    "geometry": {
       "type": "Point",
       "coordinates":  [ 30.60161837,37.5123685 ]
    },
    "properties": {
    "maxDate":300,
    "minDate":-330,
    "Title":"Keraia"
    }
  },
  {
    "type": "Feature",
    "geometry": {
       "type": "Point",
       "coordinates":  [ 29.12946900,37.3540170 ]
    },
    "properties": {
    "maxDate":640,
    "minDate":-30,
    "Title":"Kidrama"
    }
  },
  {
    "type": "Feature",
    "geometry": {
       "type": "Point",
       "coordinates":  [ 29.03415000,37.8393140 ]
    },
    "properties": {
    "maxDate":300,
    "minDate":-30,
    "Title":"Kilaraza"
    }
  },
  {
    "type": "Feature",
    "geometry": {
       "type": "Point",
       "coordinates":  [ 32.58545500,40.9842900 ]
    },
    "properties": {
    "maxDate":300,
    "minDate":-30,
    "Title":"Kimista"
    }
  },
  {
    "type": "Feature",
    "geometry": {
       "type": "Point",
       "coordinates":  [ 32.21398650,38.1485680 ]
    },
    "properties": {
    "maxDate":640,
    "minDate":-30,
    "Title":"Kindyria"
    }
  },
  {
    "type": "Feature",
    "geometry": {
       "type": "Point",
       "coordinates":  [ 35.68204000,36.9450080 ]
    },
    "properties": {
    "maxDate":640,
    "minDate":300,
    "Title":"Kirkota"
    }
  },
  {
    "type": "Feature",
    "geometry": {
       "type": "Point",
       "coordinates":  [ 30.25560000,40.4695240 ]
    },
    "properties": {
    "maxDate":300,
    "minDate":-30,
    "Title":"Kizoura"
    }
  },
  {
    "type": "Feature",
    "geometry": {
       "type": "Point",
       "coordinates":  [ 27.89372900,38.0505750 ]
    },
    "properties": {
    "maxDate":300,
    "minDate":-30,
    "Title":"Kleimaka"
    }
  },
  {
    "type": "Feature",
    "geometry": {
       "type": "Point",
       "coordinates":  [ 33.15754300,40.2593230 ]
    },
    "properties": {
    "maxDate":300,
    "minDate":-30,
    "Title":"Klossama"
    }
  },
  {
    "type": "Feature",
    "geometry": {
       "type": "Point",
       "coordinates":  [ 33.61589450,40.5580370 ]
    },
    "properties": {
    "maxDate":640,
    "minDate":300,
    "Title":"Kobara"
    }
  },
  {
    "type": "Feature",
    "geometry": {
       "type": "Point",
       "coordinates":  [ 26.41015200,39.6729100 ]
    },
    "properties": {
    "maxDate":300,
    "minDate":-550,
    "Title":"Kokylion?"
    }
  },
  {
    "type": "Feature",
    "geometry": {
       "type": "Point",
       "coordinates":  [ 29.66935700,36.5512650 ]
    },
    "properties": {
    "maxDate":640,
    "minDate":-30,
    "Title":"Komba"
    }
  },
  {
    "type": "Feature",
    "geometry": {
       "type": "Point",
       "coordinates":  [ 33.26914800,40.2186480 ]
    },
    "properties": {
    "maxDate":640,
    "minDate":300,
    "Title":"Konkarztiakon"
    }
  },
  {
    "type": "Feature",
    "geometry": {
       "type": "Point",
       "coordinates":  [ 28.26501900,38.4239840 ]
    },
    "properties": {
    "maxDate":300,
    "minDate":-30,
    "Title":"Korakoe"
    }
  },
  {
    "type": "Feature",
    "geometry": {
       "type": "Point",
       "coordinates":  [ 29.80686750,36.2918525 ]
    },
    "properties": {
    "maxDate":640,
    "minDate":-330,
    "Title":"Korba"
    }
  },
  {
    "type": "Feature",
    "geometry": {
       "type": "Point",
       "coordinates":  [ 30.30030950,36.5530990 ]
    },
    "properties": {
    "maxDate":300,
    "minDate":-30,
    "Title":"Korma"
    }
  },
  {
    "type": "Feature",
    "geometry": {
       "type": "Point",
       "coordinates":  [ 29.94821600,40.7911130 ]
    },
    "properties": {
    "maxDate":300,
    "minDate":-30,
    "Title":"Koubaita"
    }
  },
  {
    "type": "Feature",
    "geometry": {
       "type": "Point",
       "coordinates":  [ 27.27351300,37.0086400 ]
    },
    "properties": {
    "maxDate":300,
    "minDate":-30,
    "Title":"Kymnissa"
    }
  },
  {
    "type": "Feature",
    "geometry": {
       "type": "Point",
       "coordinates":  [ 29.91593000,40.9006450 ]
    },
    "properties": {
    "maxDate":300,
    "minDate":-30,
    "Title":"Kypra"
    }
  },
  {
    "type": "Feature",
    "geometry": {
       "type": "Point",
       "coordinates":  [ 0.88648100,47.7415830 ]
    },
    "properties": {
    "maxDate":640,
    "minDate":300,
    "Title":"Labr(oc)inum"
    }
  },
  {
    "type": "Feature",
    "geometry": {
       "type": "Point",
       "coordinates":  [ 31.92041900,38.2812060 ]
    },
    "properties": {
    "maxDate":300,
    "minDate":-30,
    "Title":"Lageina"
    }
  },
  {
    "type": "Feature",
    "geometry": {
       "type": "Point",
       "coordinates":  [ -7.81093600,41.0987350 ]
    },
    "properties": {
    "maxDate":640,
    "minDate":-30,
    "Title":"Lamecum"
    }
  },
  {
    "type": "Feature",
    "geometry": {
       "type": "Point",
       "coordinates":  [ 27.84900100,38.5974400 ]
    },
    "properties": {
    "maxDate":300,
    "minDate":-30,
    "Title":"Lamyana"
    }
  },
  {
    "type": "Feature",
    "geometry": {
       "type": "Point",
       "coordinates":  [ 29.90635800,38.8765540 ]
    },
    "properties": {
    "maxDate":640,
    "minDate":-30,
    "Title":"Lankena"
    }
  },
  {
    "type": "Feature",
    "geometry": {
       "type": "Point",
       "coordinates":  [ 32.66386700,37.0619610 ]
    },
    "properties": {
    "maxDate":300,
    "minDate":-30,
    "Title":"Laroumada"
    }
  },
  {
    "type": "Feature",
    "geometry": {
       "type": "Point",
       "coordinates":  [ 27.88024700,38.6273840 ]
    },
    "properties": {
    "maxDate":300,
    "minDate":-30,
    "Title":"Lasnedda?"
    }
  },
  {
    "type": "Feature",
    "geometry": {
       "type": "Point",
       "coordinates":  [ 13.83803000,42.0653920 ]
    },
    "properties": {
    "maxDate":300,
    "minDate":-330,
    "Title":"Lavernae"
    }
  },
  {
    "type": "Feature",
    "geometry": {
       "type": "Point",
       "coordinates":  [ 5.55186100,46.6739390 ]
    },
    "properties": {
    "maxDate":640,
    "minDate":-330,
    "Title":"Ledo"
    }
  },
  {
    "type": "Feature",
    "geometry": {
       "type": "Point",
       "coordinates":  [ 30.35644500,37.6820530 ]
    },
    "properties": {
    "maxDate":300,
    "minDate":-30,
    "Title":"Legeita"
    }
  },
  {
    "type": "Feature",
    "geometry": {
       "type": "Point",
       "coordinates":  [ 29.97464100,40.8144520 ]
    },
    "properties": {
    "maxDate":300,
    "minDate":-30,
    "Title":"Leptoia"
    }
  },
  {
    "type": "Feature",
    "geometry": {
       "type": "Point",
       "coordinates":  [ -1.85375800,52.6563535 ]
    },
    "properties": {
    "maxDate":640,
    "minDate":-30,
    "Title":"Letocetum"
    }
  },
  {
    "type": "Feature",
    "geometry": {
       "type": "Point",
       "coordinates":  [ -1.47037800,51.2257950 ]
    },
    "properties": {
    "maxDate":640,
    "minDate":-30,
    "Title":"Leucomagus"
    }
  },
  {
    "type": "Feature",
    "geometry": {
       "type": "Point",
       "coordinates":  [ 3.23998600,45.4574190 ]
    },
    "properties": {
    "maxDate":640,
    "minDate":300,
    "Title":"Licaniacum"
    }
  },
  {
    "type": "Feature",
    "geometry": {
       "type": "Point",
       "coordinates":  [ 28.11129900,38.8464650 ]
    },
    "properties": {
    "maxDate":300,
    "minDate":-30,
    "Title":"Lora / Flaviopolis"
    }
  },
  {
    "type": "Feature",
    "geometry": {
       "type": "Point",
       "coordinates":  [ 30.71897050,36.9935095 ]
    },
    "properties": {
    "maxDate":300,
    "minDate":-30,
    "Title":"Lyrba"
    }
  },
  {
    "type": "Feature",
    "geometry": {
       "type": "Point",
       "coordinates":  [ 29.02036300,36.9595980 ]
    },
    "properties": {
    "maxDate":-30,
    "minDate":-330,
    "Title":"Lyrna?"
    }
  },
  {
    "type": "Feature",
    "geometry": {
       "type": "Point",
       "coordinates":  [ 36.57811300,35.5939850 ]
    },
    "properties": {
    "maxDate":640,
    "minDate":300,
    "Title":"Magarataricha"
    }
  },
  {
    "type": "Feature",
    "geometry": {
       "type": "Point",
       "coordinates":  [ 30.38877300,37.7161970 ]
    },
    "properties": {
    "maxDate":300,
    "minDate":-30,
    "Title":"Magastara"
    }
  },
  {
    "type": "Feature",
    "geometry": {
       "type": "Point",
       "coordinates":  [ 36.60543300,36.1850900 ]
    },
    "properties": {
    "maxDate":640,
    "minDate":300,
    "Title":"Magzartha"
    }
  },
  {
    "type": "Feature",
    "geometry": {
       "type": "Point",
       "coordinates":  [ 27.92853800,38.6810590 ]
    },
    "properties": {
    "maxDate":300,
    "minDate":-550,
    "Title":"Maiboza / Iulia"
    }
  },
  {
    "type": "Feature",
    "geometry": {
       "type": "Point",
       "coordinates":  [ 30.05140900,37.7227650 ]
    },
    "properties": {
    "maxDate":640,
    "minDate":-30,
    "Title":"Malgasa"
    }
  },
  {
    "type": "Feature",
    "geometry": {
       "type": "Point",
       "coordinates":  [ 19.53174250,43.9721961 ]
    },
    "properties": {
    "maxDate":2100,
    "minDate":-30,
    "Title":"Malves(i)a"
    }
  },
  {
    "type": "Feature",
    "geometry": {
       "type": "Point",
       "coordinates":  [ 0.75950500,47.1517230 ]
    },
    "properties": {
    "maxDate":640,
    "minDate":300,
    "Title":"Mantoloma(g)um"
    }
  },
  {
    "type": "Feature",
    "geometry": {
       "type": "Point",
       "coordinates":  [ 9.22287200,36.0299400 ]
    },
    "properties": {
    "maxDate":300,
    "minDate":-30,
    "Title":"Maracitana"
    }
  },
  {
    "type": "Feature",
    "geometry": {
       "type": "Point",
       "coordinates":  [ 9.25000000,36.2500000 ]
    },
    "properties": {
    "maxDate":300,
    "minDate":-30,
    "Title":"Maragui Sara?"
    }
  },
  {
    "type": "Feature",
    "geometry": {
       "type": "Point",
       "coordinates":  [ 30.47823000,36.6612360 ]
    },
    "properties": {
    "maxDate":-30,
    "minDate":-330,
    "Title":"Marmara?"
    }
  },
  {
    "type": "Feature",
    "geometry": {
       "type": "Point",
       "coordinates":  [ 9.66743300,37.0378485 ]
    },
    "properties": {
    "maxDate":640,
    "minDate":-330,
    "Title":"Matar"
    }
  },
  {
    "type": "Feature",
    "geometry": {
       "type": "Point",
       "coordinates":  [ 9.52286000,36.7979380 ]
    },
    "properties": {
    "maxDate":640,
    "minDate":-330,
    "Title":"Medd(a)"
    }
  },
  {
    "type": "Feature",
    "geometry": {
       "type": "Point",
       "coordinates":  [ 33.21104400,36.7484740 ]
    },
    "properties": {
    "maxDate":300,
    "minDate":-30,
    "Title":"Meriana"
    }
  },
  {
    "type": "Feature",
    "geometry": {
       "type": "Point",
       "coordinates":  [ 3.49809300,44.5180195 ]
    },
    "properties": {
    "maxDate":640,
    "minDate":-330,
    "Title":"Mimas"
    }
  },
  {
    "type": "Feature",
    "geometry": {
       "type": "Point",
       "coordinates":  [ 10.14189200,45.3551680 ]
    },
    "properties": {
    "maxDate":640,
    "minDate":-30,
    "Title":"Minervium"
    }
  },
  {
    "type": "Feature",
    "geometry": {
       "type": "Point",
       "coordinates":  [ 27.56863800,38.8687600 ]
    },
    "properties": {
    "maxDate":300,
    "minDate":-30,
    "Title":"Misnya"
    }
  },
  {
    "type": "Feature",
    "geometry": {
       "type": "Point",
       "coordinates":  [ 31.72807850,37.6791055 ]
    },
    "properties": {
    "maxDate":640,
    "minDate":-330,
    "Title":"Mistea / Klaudiokaisareia"
    }
  },
  {
    "type": "Feature",
    "geometry": {
       "type": "Point",
       "coordinates":  [ 28.38129100,37.2248490 ]
    },
    "properties": {
    "maxDate":640,
    "minDate":-330,
    "Title":"Mobolla"
    }
  },
  {
    "type": "Feature",
    "geometry": {
       "type": "Point",
       "coordinates":  [ 29.05962500,37.3927820 ]
    },
    "properties": {
    "maxDate":300,
    "minDate":-30,
    "Title":"Mokolda?"
    }
  },
  {
    "type": "Feature",
    "geometry": {
       "type": "Point",
       "coordinates":  [ -4.30347050,51.8592530 ]
    },
    "properties": {
    "maxDate":640,
    "minDate":-30,
    "Title":"Moridunum"
    }
  },
  {
    "type": "Feature",
    "geometry": {
       "type": "Point",
       "coordinates":  [ 30.14760500,41.0512230 ]
    },
    "properties": {
    "maxDate":300,
    "minDate":-30,
    "Title":"Morzapena"
    }
  },
  {
    "type": "Feature",
    "geometry": {
       "type": "Point",
       "coordinates":  [ 30.37594200,40.3013830 ]
    },
    "properties": {
    "maxDate":300,
    "minDate":-30,
    "Title":"Mossynea"
    }
  },
  {
    "type": "Feature",
    "geometry": {
       "type": "Point",
       "coordinates":  [ 29.20852700,38.1166170 ]
    },
    "properties": {
    "maxDate":300,
    "minDate":-30,
    "Title":"Motaleia"
    }
  },
  {
    "type": "Feature",
    "geometry": {
       "type": "Point",
       "coordinates":  [ 32.37567300,37.4361260 ]
    },
    "properties": {
    "maxDate":300,
    "minDate":-30,
    "Title":"Mourisa"
    }
  },
  {
    "type": "Feature",
    "geometry": {
       "type": "Point",
       "coordinates":  [ 10.32769200,36.7310050 ]
    },
    "properties": {
    "maxDate":640,
    "minDate":-30,
    "Title":"Naro / Aquae Persianae"
    }
  },
  {
    "type": "Feature",
    "geometry": {
       "type": "Point",
       "coordinates":  [ 23.22858400,41.6131700 ]
    },
    "properties": {
    "maxDate":300,
    "minDate":-30,
    "Title":"Neine"
    }
  },
  {
    "type": "Feature",
    "geometry": {
       "type": "Point",
       "coordinates":  [ 29.85072300,40.9060680 ]
    },
    "properties": {
    "maxDate":300,
    "minDate":-30,
    "Title":"Nerola"
    }
  },
  {
    "type": "Feature",
    "geometry": {
       "type": "Point",
       "coordinates":  [ 28.60303900,38.5471100 ]
    },
    "properties": {
    "maxDate":300,
    "minDate":-30,
    "Title":"Nisyra"
    }
  },
  {
    "type": "Feature",
    "geometry": {
       "type": "Point",
       "coordinates":  [ 0.90963000,47.5110290 ]
    },
    "properties": {
    "maxDate":640,
    "minDate":300,
    "Title":"Nobiliacus"
    }
  },
  {
    "type": "Feature",
    "geometry": {
       "type": "Point",
       "coordinates":  [ 2.79984200,46.9659130 ]
    },
    "properties": {
    "maxDate":640,
    "minDate":-30,
    "Title":"Nogeomagus"
    }
  },
  {
    "type": "Feature",
    "geometry": {
       "type": "Point",
       "coordinates":  [ 22.00081100,40.1784460 ]
    },
    "properties": {
    "maxDate":300,
    "minDate":-30,
    "Title":"Oblostos"
    }
  },
  {
    "type": "Feature",
    "geometry": {
       "type": "Point",
       "coordinates":  [ 28.50719900,38.7231030 ]
    },
    "properties": {
    "maxDate":300,
    "minDate":-330,
    "Title":"Odon"
    }
  },
  {
    "type": "Feature",
    "geometry": {
       "type": "Point",
       "coordinates":  [ 30.41120200,40.1323100 ]
    },
    "properties": {
    "maxDate":300,
    "minDate":-30,
    "Title":"Oka"
    }
  },
  {
    "type": "Feature",
    "geometry": {
       "type": "Point",
       "coordinates":  [ 32.58941700,36.8915870 ]
    },
    "properties": {
    "maxDate":300,
    "minDate":-30,
    "Title":"Olosada"
    }
  },
  {
    "type": "Feature",
    "geometry": {
       "type": "Point",
       "coordinates":  [ 30.52357300,36.8138210 ]
    },
    "properties": {
    "maxDate":300,
    "minDate":-30,
    "Title":"Onobara"
    }
  },
  {
    "type": "Feature",
    "geometry": {
       "type": "Point",
       "coordinates":  [ 30.51102500,40.2579270 ]
    },
    "properties": {
    "maxDate":300,
    "minDate":-30,
    "Title":"Ontoraita"
    }
  },
  {
    "type": "Feature",
    "geometry": {
       "type": "Point",
       "coordinates":  [ -2.68731300,40.1459460 ]
    },
    "properties": {
    "maxDate":300,
    "minDate":-330,
    "Title":"Opta"
    }
  },
  {
    "type": "Feature",
    "geometry": {
       "type": "Point",
       "coordinates":  [ 32.79102900,39.3671220 ]
    },
    "properties": {
    "maxDate":640,
    "minDate":-30,
    "Title":"Orbana"
    }
  },
  {
    "type": "Feature",
    "geometry": {
       "type": "Point",
       "coordinates":  [ 36.70710800,32.9132050 ]
    },
    "properties": {
    "maxDate":640,
    "minDate":-30,
    "Title":"Orela?"
    }
  },
  {
    "type": "Feature",
    "geometry": {
       "type": "Point",
       "coordinates":  [ 27.14595900,38.1978540 ]
    },
    "properties": {
    "maxDate":-30,
    "minDate":-330,
    "Title":"Oroanna"
    }
  },
  {
    "type": "Feature",
    "geometry": {
       "type": "Point",
       "coordinates":  [ 31.58840750,36.8648120 ]
    },
    "properties": {
    "maxDate":300,
    "minDate":-30,
    "Title":"Orokenda"
    }
  },
  {
    "type": "Feature",
    "geometry": {
       "type": "Point",
       "coordinates":  [ 29.80789200,36.8316725 ]
    },
    "properties": {
    "maxDate":300,
    "minDate":-330,
    "Title":"Orpeena"
    }
  },
  {
    "type": "Feature",
    "geometry": {
       "type": "Point",
       "coordinates":  [ 16.63789700,43.7019050 ]
    },
    "properties": {
    "maxDate":640,
    "minDate":-30,
    "Title":"Osinium"
    }
  },
  {
    "type": "Feature",
    "geometry": {
       "type": "Point",
       "coordinates":  [ 33.91155000,36.6733970 ]
    },
    "properties": {
    "maxDate":640,
    "minDate":300,
    "Title":"Otanada"
    }
  },
  {
    "type": "Feature",
    "geometry": {
       "type": "Point",
       "coordinates":  [ 30.69913600,38.3084230 ]
    },
    "properties": {
    "maxDate":640,
    "minDate":-30,
    "Title":"Oueiniata"
    }
  },
  {
    "type": "Feature",
    "geometry": {
       "type": "Point",
       "coordinates":  [ 30.26641400,37.2393570 ]
    },
    "properties": {
    "maxDate":640,
    "minDate":-30,
    "Title":"Ouerbe"
    }
  },
  {
    "type": "Feature",
    "geometry": {
       "type": "Point",
       "coordinates":  [ 28.37414500,37.1010500 ]
    },
    "properties": {
    "maxDate":-30,
    "minDate":-550,
    "Title":"Oula"
    }
  },
  {
    "type": "Feature",
    "geometry": {
       "type": "Point",
       "coordinates":  [ 28.27197100,38.2148290 ]
    },
    "properties": {
    "maxDate":300,
    "minDate":-30,
    "Title":"Oumyrota"
    }
  },
  {
    "type": "Feature",
    "geometry": {
       "type": "Point",
       "coordinates":  [ 27.37888100,38.7106130 ]
    },
    "properties": {
    "maxDate":300,
    "minDate":-30,
    "Title":"Panda"
    }
  },
  {
    "type": "Feature",
    "geometry": {
       "type": "Point",
       "coordinates":  [ 27.54447400,37.6143230 ]
    },
    "properties": {
    "maxDate":-330,
    "minDate":-550,
    "Title":"Parparia"
    }
  },
  {
    "type": "Feature",
    "geometry": {
       "type": "Point",
       "coordinates":  [ 27.63887500,38.3931060 ]
    },
    "properties": {
    "maxDate":640,
    "minDate":300,
    "Title":"Parsada"
    }
  },
  {
    "type": "Feature",
    "geometry": {
       "type": "Point",
       "coordinates":  [ 0.49923500,47.4434780 ]
    },
    "properties": {
    "maxDate":640,
    "minDate":300,
    "Title":"Paternacum"
    }
  },
  {
    "type": "Feature",
    "geometry": {
       "type": "Point",
       "coordinates":  [ 31.87366200,37.6346120 ]
    },
    "properties": {
    "maxDate":300,
    "minDate":-30,
    "Title":"Pedaia"
    }
  },
  {
    "type": "Feature",
    "geometry": {
       "type": "Point",
       "coordinates":  [ 30.44656200,37.3275880 ]
    },
    "properties": {
    "maxDate":300,
    "minDate":-30,
    "Title":"Perminounda"
    }
  },
  {
    "type": "Feature",
    "geometry": {
       "type": "Point",
       "coordinates":  [ -0.59056000,53.6876890 ]
    },
    "properties": {
    "maxDate":640,
    "minDate":-30,
    "Title":"Petuaria"
    }
  },
  {
    "type": "Feature",
    "geometry": {
       "type": "Point",
       "coordinates":  [ 32.89125100,35.0616900 ]
    },
    "properties": {
    "maxDate":300,
    "minDate":-30,
    "Title":"Phlason"
    }
  },
  {
    "type": "Feature",
    "geometry": {
       "type": "Point",
       "coordinates":  [ 6.40615700,36.3285700 ]
    },
    "properties": {
    "maxDate":640,
    "minDate":-30,
    "Title":"Phua"
    }
  },
  {
    "type": "Feature",
    "geometry": {
       "type": "Point",
       "coordinates":  [ 32.71790000,38.6880140 ]
    },
    "properties": {
    "maxDate":300,
    "minDate":-30,
    "Title":"Pillitokome"
    }
  },
  {
    "type": "Feature",
    "geometry": {
       "type": "Point",
       "coordinates":  [ 27.68695000,38.9804160 ]
    },
    "properties": {
    "maxDate":300,
    "minDate":-30,
    "Title":"Pingea"
    }
  },
  {
    "type": "Feature",
    "geometry": {
       "type": "Point",
       "coordinates":  [ 31.72806200,36.6608680 ]
    },
    "properties": {
    "maxDate":300,
    "minDate":-30,
    "Title":"Pisarissos"
    }
  },
  {
    "type": "Feature",
    "geometry": {
       "type": "Point",
       "coordinates":  [ 32.21320400,38.2402920 ]
    },
    "properties": {
    "maxDate":640,
    "minDate":300,
    "Title":"Pithoi"
    }
  },
  {
    "type": "Feature",
    "geometry": {
       "type": "Point",
       "coordinates":  [ 27.81711300,38.9758200 ]
    },
    "properties": {
    "maxDate":-30,
    "minDate":-330,
    "Title":"Pityaia"
    }
  },
  {
    "type": "Feature",
    "geometry": {
       "type": "Point",
       "coordinates":  [ 28.07978500,37.0873170 ]
    },
    "properties": {
    "maxDate":-30,
    "minDate":-550,
    "Title":"Pladasa"
    }
  },
  {
    "type": "Feature",
    "geometry": {
       "type": "Point",
       "coordinates":  [ 30.35474400,38.0471440 ]
    },
    "properties": {
    "maxDate":300,
    "minDate":-30,
    "Title":"Plinnena"
    }
  },
  {
    "type": "Feature",
    "geometry": {
       "type": "Point",
       "coordinates":  [ 29.77988000,40.4222940 ]
    },
    "properties": {
    "maxDate":300,
    "minDate":-30,
    "Title":"Ploketta"
    }
  },
  {
    "type": "Feature",
    "geometry": {
       "type": "Point",
       "coordinates":  [ 32.74570400,39.0686130 ]
    },
    "properties": {
    "maxDate":300,
    "minDate":-30,
    "Title":"Plomma"
    }
  },
  {
    "type": "Feature",
    "geometry": {
       "type": "Point",
       "coordinates":  [ 30.59278400,38.2103000 ]
    },
    "properties": {
    "maxDate":300,
    "minDate":-30,
    "Title":"Plouristreia"
    }
  },
  {
    "type": "Feature",
    "geometry": {
       "type": "Point",
       "coordinates":  [ 26.57715000,38.4291490 ]
    },
    "properties": {
    "maxDate":-330,
    "minDate":-550,
    "Title":"Polichna"
    }
  },
  {
    "type": "Feature",
    "geometry": {
       "type": "Point",
       "coordinates":  [ 29.92414850,37.4342875 ]
    },
    "properties": {
    "maxDate":300,
    "minDate":-30,
    "Title":"Polyetta"
    }
  },
  {
    "type": "Feature",
    "geometry": {
       "type": "Point",
       "coordinates":  [ 30.42098500,38.2220070 ]
    },
    "properties": {
    "maxDate":300,
    "minDate":-30,
    "Title":"Polyntena"
    }
  },
  {
    "type": "Feature",
    "geometry": {
       "type": "Point",
       "coordinates":  [ 30.52679900,39.3522640 ]
    },
    "properties": {
    "maxDate":300,
    "minDate":-30,
    "Title":"Pontanena"
    }
  },
  {
    "type": "Feature",
    "geometry": {
       "type": "Point",
       "coordinates":  [ 8.31419800,36.3107210 ]
    },
    "properties": {
    "maxDate":640,
    "minDate":-30,
    "Title":"Popthensis"
    }
  },
  {
    "type": "Feature",
    "geometry": {
       "type": "Point",
       "coordinates":  [ 25.32930050,41.1328960 ]
    },
    "properties": {
    "maxDate":640,
    "minDate":-30,
    "Title":"Porsulae / Maximianopolis"
    }
  },
  {
    "type": "Feature",
    "geometry": {
       "type": "Point",
       "coordinates":  [ 8.70439000,48.8933780 ]
    },
    "properties": {
    "maxDate":300,
    "minDate":-30,
    "Title":"Portus"
    }
  },
  {
    "type": "Feature",
    "geometry": {
       "type": "Point",
       "coordinates":  [ 29.34391100,40.6112260 ]
    },
    "properties": {
    "maxDate":300,
    "minDate":-30,
    "Title":"Pratomysia"
    }
  },
  {
    "type": "Feature",
    "geometry": {
       "type": "Point",
       "coordinates":  [ 29.75065200,40.8565230 ]
    },
    "properties": {
    "maxDate":300,
    "minDate":-30,
    "Title":"Prepa"
    }
  },
  {
    "type": "Feature",
    "geometry": {
       "type": "Point",
       "coordinates":  [ 30.24801800,40.7531500 ]
    },
    "properties": {
    "maxDate":300,
    "minDate":-30,
    "Title":"Prindea"
    }
  },
  {
    "type": "Feature",
    "geometry": {
       "type": "Point",
       "coordinates":  [ 0.91940400,46.9227890 ]
    },
    "properties": {
    "maxDate":640,
    "minDate":300,
    "Title":"Prisciniacum"
    }
  },
  {
    "type": "Feature",
    "geometry": {
       "type": "Point",
       "coordinates":  [ 29.99697100,40.0117190 ]
    },
    "properties": {
    "maxDate":300,
    "minDate":-30,
    "Title":"Pronnaea"
    }
  },
  {
    "type": "Feature",
    "geometry": {
       "type": "Point",
       "coordinates":  [ 29.65718000,40.9132680 ]
    },
    "properties": {
    "maxDate":300,
    "minDate":-30,
    "Title":"Psarela"
    }
  },
  {
    "type": "Feature",
    "geometry": {
       "type": "Point",
       "coordinates":  [ -1.54639700,47.1831530 ]
    },
    "properties": {
    "maxDate":2100,
    "minDate":-30,
    "Title":"Ratiatum"
    }
  },
  {
    "type": "Feature",
    "geometry": {
       "type": "Point",
       "coordinates":  [ 3.11493200,45.8939950 ]
    },
    "properties": {
    "maxDate":640,
    "minDate":300,
    "Title":"Ricomagus"
    }
  },
  {
    "type": "Feature",
    "geometry": {
       "type": "Point",
       "coordinates":  [ 35.72336000,34.1622540 ]
    },
    "properties": {
    "maxDate":300,
    "minDate":-30,
    "Title":"Saarna"
    }
  },
  {
    "type": "Feature",
    "geometry": {
       "type": "Point",
       "coordinates":  [ 6.61139600,36.2530970 ]
    },
    "properties": {
    "maxDate":640,
    "minDate":-30,
    "Title":"Saddar"
    }
  },
  {
    "type": "Feature",
    "geometry": {
       "type": "Point",
       "coordinates":  [ 8.91035700,49.2396640 ]
    },
    "properties": {
    "maxDate":300,
    "minDate":-30,
    "Title":"Saliobriga"
    }
  },
  {
    "type": "Feature",
    "geometry": {
       "type": "Point",
       "coordinates":  [ 29.27618300,38.1218110 ]
    },
    "properties": {
    "maxDate":300,
    "minDate":-30,
    "Title":"Saloudeia?"
    }
  },
  {
    "type": "Feature",
    "geometry": {
       "type": "Point",
       "coordinates":  [ 27.70476900,39.1646610 ]
    },
    "properties": {
    "maxDate":300,
    "minDate":-30,
    "Title":"Sandaina?"
    }
  },
  {
    "type": "Feature",
    "geometry": {
       "type": "Point",
       "coordinates":  [ 36.13036900,45.3029920 ]
    },
    "properties": {
    "maxDate":300,
    "minDate":-30,
    "Title":"Sauromateion"
    }
  },
  {
    "type": "Feature",
    "geometry": {
       "type": "Point",
       "coordinates":  [ 32.16214900,37.4423280 ]
    },
    "properties": {
    "maxDate":300,
    "minDate":-30,
    "Title":"Sedasa"
    }
  },
  {
    "type": "Feature",
    "geometry": {
       "type": "Point",
       "coordinates":  [ 7.35846700,46.2323500 ]
    },
    "properties": {
    "maxDate":640,
    "minDate":-30,
    "Title":"Sedunum"
    }
  },
  {
    "type": "Feature",
    "geometry": {
       "type": "Point",
       "coordinates":  [ 31.59880700,38.2058400 ]
    },
    "properties": {
    "maxDate":640,
    "minDate":-30,
    "Title":"Seilinda"
    }
  },
  {
    "type": "Feature",
    "geometry": {
       "type": "Point",
       "coordinates":  [ 36.55384200,32.8041180 ]
    },
    "properties": {
    "maxDate":640,
    "minDate":-30,
    "Title":"Selaima"
    }
  },
  {
    "type": "Feature",
    "geometry": {
       "type": "Point",
       "coordinates":  [ 27.58777800,38.3918080 ]
    },
    "properties": {
    "maxDate":300,
    "minDate":-30,
    "Title":"Selinda"
    }
  },
  {
    "type": "Feature",
    "geometry": {
       "type": "Point",
       "coordinates":  [ 31.75041300,38.6939560 ]
    },
    "properties": {
    "maxDate":640,
    "minDate":-30,
    "Title":"Selmena"
    }
  },
  {
    "type": "Feature",
    "geometry": {
       "type": "Point",
       "coordinates":  [ 31.76529050,36.8235865 ]
    },
    "properties": {
    "maxDate":300,
    "minDate":-30,
    "Title":"Sennea?"
    }
  },